{
"type": "FeatureCollection",
"name": "Education_Facility",
"crs": { "type": "name", "properties": { "name": "urn:ogc:def:crs:OGC:1.3:CRS84" } },
"features": [
{ "type": "Feature", "properties": { "OBJECTID": 1024, "NAME": "Woodland Elem. School", "OWNER": "Johnson City", "OWNTYPE": "Municipal", "FULLADDR": "2302 Indian Ridge Rd, Johnson City, TN 37604", "MUNICIPALITY": "Johnson City", "STATE": "TN", "LOCATIONTYPE": "Elementary School", "last_edited_date": "2022-08-01T14:48:14Z", "JCGRID": "K-12" }, "geometry": { "type": "Point", "coordinates": [ -82.405873043545142, 36.320999839168159 ] } },
{ "type": "Feature", "properties": { "OBJECTID": 1025, "NAME": "Lake Ridge Elem. School", "OWNER": "Johnson City", "OWNTYPE": "Municipal", "FULLADDR": "1001 Lake Ridge Sq, Johnson City, TN 37601", "MUNICIPALITY": "Johnson City", "STATE": "TN", "LOCATIONTYPE": "Administration", "last_edited_date": "2022-08-01T14:48:14Z", "JCGRID": "L-6" }, "geometry": { "type": "Point", "coordinates": [ -82.385785012015305, 36.384936566641962 ] } },
{ "type": "Feature", "properties": { "OBJECTID": 1026, "NAME": "Columbus Powell Service Center", "OWNER": "Johnson City", "OWNTYPE": "Municipal", "FULLADDR": "100 E Maple St, Johnson City, TN 37601", "MUNICIPALITY": "Johnson City", "STATE": "TN", "LOCATIONTYPE": "Service Center", "last_edited_date": "2019-08-09T13:03:09Z", "JCGRID": "P-13" }, "geometry": { "type": "Point", "coordinates": [ -82.347273871164518, 36.31422670575288 ] } },
{ "type": "Feature", "properties": { "OBJECTID": 1027, "NAME": "Towne Acres Elem. School", "OWNER": "Johnson City", "OWNTYPE": "Municipal", "FULLADDR": "2310 Larkspur Dr, Johnson City, TN 37604", "MUNICIPALITY": "Johnson City", "STATE": "TN", "LOCATIONTYPE": "Elementary School", "last_edited_date": "2022-11-10T17:11:34Z", "JCGRID": "M-10" }, "geometry": { "type": "Point", "coordinates": [ -82.384609934395215, 36.343611213258143 ] } },
{ "type": "Feature", "properties": { "OBJECTID": 1028, "NAME": "Science Hill Tech Center", "OWNER": "Johnson City", "OWNTYPE": "Municipal", "FULLADDR": "251 Cotty Jones Ln, Johnson City, TN 37604", "MUNICIPALITY": "Johnson City", "STATE": "TN", "LOCATIONTYPE": "Tech Center", "last_edited_date": "2020-02-25T18:37:21Z", "JCGRID": "N-11" }, "geometry": { "type": "Point", "coordinates": [ -82.374651867693316, 36.327282178418912 ] } },
{ "type": "Feature", "properties": { "OBJECTID": 1029, "NAME": "Science Hill HS ", "OWNER": "Johnson City", "OWNTYPE": "Municipal", "FULLADDR": "1509 John Exum Pkwy, Johnson City, TN 37604", "MUNICIPALITY": "Johnson City", "STATE": "TN", "LOCATIONTYPE": "High School ", "last_edited_date": "2022-08-22T12:41:16Z", "JCGRID": "N-11" }, "geometry": { "type": "Point", "coordinates": [ -82.370462512177866, 36.327348906184795 ] } },
{ "type": "Feature", "properties": { "OBJECTID": 1030, "NAME": "Indian Trail Middle School", "OWNER": "Johnson City", "OWNTYPE": "Municipal", "FULLADDR": "307 Car-Mol Dr, Johnson City, TN 37601", "MUNICIPALITY": "Johnson City", "STATE": "TN", "LOCATIONTYPE": "Intermediate School", "last_edited_date": "2022-08-19T18:28:17Z", "JCGRID": "K-7" }, "geometry": { "type": "Point", "coordinates": [ -82.401628394225341, 36.372225202818093 ] } },
{ "type": "Feature", "properties": { "OBJECTID": 1031, "NAME": "Jeremiah", "OWNER": "Private", "OWNTYPE": "Private", "FULLADDR": "1502 Knob Creek Rd, Johnson City, TN 37604", "MUNICIPALITY": "Johnson City", "STATE": "TN", "LOCATIONTYPE": "School", "last_edited_date": "2022-08-09T12:49:48Z", "JCGRID": "Q-14" }, "geometry": { "type": "Point", "coordinates": [ -82.381970407133792, 36.324300051615417 ] } },
{ "type": "Feature", "properties": { "OBJECTID": 1032, "NAME": "South Central Elem. School", "OWNER": "Washington County", "OWNTYPE": "County", "FULLADDR": "2955 Highway 107, Chuckey, TN 37641", "MUNICIPALITY": "Washington County", "STATE": "TN", "LOCATIONTYPE": "Elementary School", "last_edited_date": "2022-12-16T21:28:40Z", "JCGRID": null }, "geometry": { "type": "Point", "coordinates": [ -82.615038105906066, 36.155677696815353 ] } },
{ "type": "Feature", "properties": { "OBJECTID": 1033, "NAME": "Sulphur Springs Elem. School", "OWNER": "Washington County", "OWNTYPE": "County", "FULLADDR": "1518 Gray Station Sulphur Springs Rd, Jonesborough, TN 37659", "MUNICIPALITY": "Washington County", "STATE": "TN", "LOCATIONTYPE": "Elementary School", "last_edited_date": "2020-11-06T16:57:31Z", "JCGRID": null }, "geometry": { "type": "Point", "coordinates": [ -82.5412455417367, 36.346556551309597 ] } },
{ "type": "Feature", "properties": { "OBJECTID": 1034, "NAME": "Daniel Boone HS", "OWNER": "Washington County", "OWNTYPE": "County", "FULLADDR": "1440 Suncrest Dr, Gray, TN 37615", "MUNICIPALITY": "Washington County", "STATE": "TN", "LOCATIONTYPE": "High School", "last_edited_date": "2022-08-09T12:52:01Z", "JCGRID": "C-7" }, "geometry": { "type": "Point", "coordinates": [ -82.501029045590712, 36.380810513025324 ] } },
{ "type": "Feature", "properties": { "OBJECTID": 1035, "NAME": "Gray Elementary School", "OWNER": "Washington County", "OWNTYPE": "County", "FULLADDR": "755 Gray Station Rd, Gray, TN 37615", "MUNICIPALITY": "Washington County", "STATE": "TN", "LOCATIONTYPE": "Elementary School", "last_edited_date": "2022-08-09T12:52:01Z", "JCGRID": "E-4" }, "geometry": { "type": "Point", "coordinates": [ -82.478206095597272, 36.416449769297991 ] } },
{ "type": "Feature", "properties": { "OBJECTID": 1037, "NAME": "Jonesborough Elem. School", "OWNER": "Washington County", "OWNTYPE": "County", "FULLADDR": "720 N Cherokee St, Jonesborough, TN 37659", "MUNICIPALITY": "Jonesborough", "STATE": "TN", "LOCATIONTYPE": "Elementary School", "last_edited_date": "2024-01-04T14:26:36Z", "JCGRID": "G-14" }, "geometry": { "type": "Point", "coordinates": [ -82.479413987429155, 36.304935074135081 ] } },
{ "type": "Feature", "properties": { "OBJECTID": 1038, "NAME": "David Crockett HS", "OWNER": "Washington County", "OWNTYPE": "County", "FULLADDR": "648 Old State Rt, Jonesborough, TN 37659", "MUNICIPALITY": "Washington County", "STATE": "TN", "LOCATIONTYPE": "High School", "last_edited_date": "2019-08-09T13:03:09Z", "JCGRID": null }, "geometry": { "type": "Point", "coordinates": [ -82.506961853559744, 36.26016162992434 ] } },
{ "type": "Feature", "properties": { "OBJECTID": 1039, "NAME": "University School", "OWNER": "Washington County", "OWNTYPE": "County", "FULLADDR": "68 Martha Culp Av, Johnson City", "MUNICIPALITY": "Johnson City", "STATE": "TN", "LOCATIONTYPE": "School", "last_edited_date": "2024-01-04T14:26:36Z", "JCGRID": "N-13" }, "geometry": { "type": "Point", "coordinates": [ -82.368029507541536, 36.304962603843194 ] } },
{ "type": "Feature", "properties": { "OBJECTID": 1040, "NAME": "St. Marys School", "OWNER": "Private", "OWNTYPE": "Private", "FULLADDR": "2211 E Lakeview Dr, Johnson City, TN 37601", "MUNICIPALITY": "Johnson City", "STATE": "TN", "LOCATIONTYPE": "School", "last_edited_date": "2022-08-09T12:45:16Z", "JCGRID": "O-9" }, "geometry": { "type": "Point", "coordinates": [ -82.351274304593616, 36.349901554206923 ] } },
{ "type": "Feature", "properties": { "OBJECTID": 1041, "NAME": "Providence Academy", "OWNER": "Private", "OWNTYPE": "Private", "FULLADDR": "2788 Carroll Creek Rd, Johnson City, TN 37615", "MUNICIPALITY": "Johnson City", "STATE": "TN", "LOCATIONTYPE": "Academy", "last_edited_date": "2022-08-09T12:45:16Z", "JCGRID": "H-11" }, "geometry": { "type": "Point", "coordinates": [ -82.435596602295988, 36.336921079125652 ] } },
{ "type": "Feature", "properties": { "OBJECTID": 1042, "NAME": "Grandview Elem. School", "OWNER": "Washington County", "OWNTYPE": "County", "FULLADDR": "2891 Highway 11 E, Telford, TN 37690", "MUNICIPALITY": "Washington County", "STATE": "TN", "LOCATIONTYPE": "Elementary School", "last_edited_date": "2020-11-06T16:57:48Z", "JCGRID": null }, "geometry": { "type": "Point", "coordinates": [ -82.567032963486881, 36.26059800154691 ] } },
{ "type": "Feature", "properties": { "OBJECTID": 1043, "NAME": "Asbury Family Resource Center", "OWNER": "Washington County", "OWNTYPE": "County", "FULLADDR": "2002 Indian Ridge Rd, Johnson City, TN 37604", "MUNICIPALITY": "Johnson City", "STATE": "TN", "LOCATIONTYPE": "Resource Center", "last_edited_date": "2022-08-09T12:52:01Z", "JCGRID": "L-12" }, "geometry": { "type": "Point", "coordinates": [ -82.397646303925242, 36.321700381176043 ] } },
{ "type": "Feature", "properties": { "OBJECTID": 1044, "NAME": "Boones Creek Elem. School", "OWNER": "Washington County", "OWNTYPE": "County", "FULLADDR": "132 Highland Church Rd, Gray, TN 37615", "MUNICIPALITY": "Washington County", "STATE": "TN", "LOCATIONTYPE": "Elementary School", "last_edited_date": "2022-08-09T12:52:01Z", "JCGRID": "G-9" }, "geometry": { "type": "Point", "coordinates": [ -82.446105132053674, 36.35550080225746 ] } },
{ "type": "Feature", "properties": { "OBJECTID": 1045, "NAME": "East Tennessee State University", "OWNER": "State of Tennessee", "OWNTYPE": "State", "FULLADDR": "1276 Gilbreath Dr, Johnson City, TN 37604", "MUNICIPALITY": "Johnson City", "STATE": "TN", "LOCATIONTYPE": "University", "last_edited_date": "2024-01-04T14:26:36Z", "JCGRID": "N-14" }, "geometry": { "type": "Point", "coordinates": [ -82.374439312221043, 36.300076567331075 ] } },
{ "type": "Feature", "properties": { "OBJECTID": 1046, "NAME": "Emmanuel Christian Seminary", "OWNER": "Private", "OWNTYPE": "Private", "FULLADDR": "1 Walker Dr, Johnson City, TN 37601", "MUNICIPALITY": "Elizabethton", "STATE": "TN", "LOCATIONTYPE": "Seminary", "last_edited_date": "2024-01-04T14:26:36Z", "JCGRID": "T-14" }, "geometry": { "type": "Point", "coordinates": [ -82.298579314791638, 36.301911318696341 ] } },
{ "type": "Feature", "properties": { "OBJECTID": 1047, "NAME": "Westside Elem. School", "OWNER": "Elizabethton", "OWNTYPE": "Municipal", "FULLADDR": "1310 Burgie St, Elizabethton, TN 37643", "MUNICIPALITY": "Elizabethton", "STATE": "TN", "LOCATIONTYPE": "Elementary School", "last_edited_date": "2019-08-09T13:03:09Z", "JCGRID": null }, "geometry": { "type": "Point", "coordinates": [ -82.246040615366624, 36.342812062851543 ] } },
{ "type": "Feature", "properties": { "OBJECTID": 1049, "NAME": "Topper & Virtual Academy", "OWNER": "Johnson City", "OWNTYPE": "Municipal", "FULLADDR": "810 W Market St, Johnson City, TN 37604", "MUNICIPALITY": "Johnson City", "STATE": "TN", "LOCATIONTYPE": "Alternative", "last_edited_date": "2022-03-14T12:50:47Z", "JCGRID": "N-12" }, "geometry": { "type": "Point", "coordinates": [ -82.372316095859944, 36.315863072647851 ] } },
{ "type": "Feature", "properties": { "OBJECTID": 1050, "NAME": "Lamar Elem. School", "OWNER": "Washington County", "OWNTYPE": "County", "FULLADDR": "3261 Highway 81 S, Jonesborough, TN 37659", "MUNICIPALITY": "Washington County", "STATE": "TN", "LOCATIONTYPE": "Elementary School", "last_edited_date": "2020-11-06T16:57:39Z", "JCGRID": null }, "geometry": { "type": "Point", "coordinates": [ -82.469030223078718, 36.217593957817449 ] } },
{ "type": "Feature", "properties": { "OBJECTID": 1051, "NAME": "ETSU - Continuing Studies", "OWNER": "State of Tennessee", "OWNTYPE": "State", "FULLADDR": "902 W Maple St, Johnson City, TN 37614", "MUNICIPALITY": "Johnson City", "STATE": "TN", "LOCATIONTYPE": "School", "last_edited_date": "2024-01-04T14:26:36Z", "JCGRID": "N-13" }, "geometry": { "type": "Point", "coordinates": [ -82.364575643388307, 36.306331955316026 ] } },
{ "type": "Feature", "properties": { "OBJECTID": 1052, "NAME": "Fairmont Elem. School", "OWNER": "Johnson City", "OWNTYPE": "Municipal", "FULLADDR": "1405 Lester Harris Rd, Johnson City, TN 37601", "MUNICIPALITY": "Johnson City", "STATE": "TN", "LOCATIONTYPE": "Elementary School", "last_edited_date": "2022-08-01T14:48:14Z", "JCGRID": "O-10" }, "geometry": { "type": "Point", "coordinates": [ -82.360303186735138, 36.339211938657861 ] } },
{ "type": "Feature", "properties": { "OBJECTID": 1053, "NAME": "Milligan College", "OWNER": "Private", "OWNTYPE": "Private", "FULLADDR": "1 Blowers Boulevard, Milligan College, TN ", "MUNICIPALITY": "Elizabethton", "STATE": "TN", "LOCATIONTYPE": "College", "last_edited_date": "2024-01-04T14:26:36Z", "JCGRID": "T-14" }, "geometry": { "type": "Point", "coordinates": [ -82.29402686209589, 36.300030161334078 ] } },
{ "type": "Feature", "properties": { "OBJECTID": 1054, "NAME": "Northeast State Community College", "OWNER": "State of Tennessee", "OWNTYPE": "State", "FULLADDR": "2445 State 75 Hwy, Blountville, TN", "MUNICIPALITY": "Sullivan County", "STATE": "TN", "LOCATIONTYPE": "Community College", "last_edited_date": "2019-08-09T13:03:09Z", "JCGRID": null }, "geometry": { "type": "Point", "coordinates": [ -82.408893531324196, 36.484931517647858 ] } },
{ "type": "Feature", "properties": { "OBJECTID": 1055, "NAME": "Unicoi County HS", "OWNER": "Unicoi County", "OWNTYPE": "County", "FULLADDR": "700 S Mohawk Dr, Erwin, TN 37650", "MUNICIPALITY": "Unicoi County", "STATE": "TN", "LOCATIONTYPE": "High School", "last_edited_date": "2020-02-25T18:38:53Z", "JCGRID": null }, "geometry": { "type": "Point", "coordinates": [ -82.411111740284142, 36.134143221716371 ] } },
{ "type": "Feature", "properties": { "OBJECTID": 1056, "NAME": "Unicoi County Superintendant", "OWNER": "Unicoi County", "OWNTYPE": "County", "FULLADDR": "600 E Elm Av, Erwin, TN 37650", "MUNICIPALITY": "Unicoi County", "STATE": "TN", "LOCATIONTYPE": "Superintendent of Schools", "last_edited_date": "2019-08-09T13:03:09Z", "JCGRID": null }, "geometry": { "type": "Point", "coordinates": [ -82.409061247649916, 36.14884856675318 ] } },
{ "type": "Feature", "properties": { "OBJECTID": 1057, "NAME": "Washington College Academy", "OWNER": "Presbyterian Church - Washington College Academy", "OWNTYPE": "Private", "FULLADDR": "116 Doak Ln, Limestone, TN 37681", "MUNICIPALITY": "Washington County", "STATE": "TN", "LOCATIONTYPE": "College", "last_edited_date": "2019-08-09T13:03:09Z", "JCGRID": null }, "geometry": { "type": "Point", "coordinates": [ -82.572314401536786, 36.221303256839128 ] } },
{ "type": "Feature", "properties": { "OBJECTID": 1058, "NAME": "Cloudland Elem. School", "OWNER": "Carter County", "OWNTYPE": "County", "FULLADDR": "8540 US 19E Hwy, Roan Mountain, TN 37687", "MUNICIPALITY": "Carter County", "STATE": "TN", "LOCATIONTYPE": "Elementary School", "last_edited_date": "2019-08-09T13:03:09Z", "JCGRID": null }, "geometry": { "type": "Point", "coordinates": [ -82.054382142140653, 36.192174908288187 ] } },
{ "type": "Feature", "properties": { "OBJECTID": 1059, "NAME": "Unicoi County Middle School", "OWNER": "Unicoi County", "OWNTYPE": "County", "FULLADDR": "599 S Mohawk Dr, Erwin, TN 37650", "MUNICIPALITY": "Unicoi County", "STATE": "TN", "LOCATIONTYPE": "Middle School", "last_edited_date": "2020-02-25T18:38:59Z", "JCGRID": null }, "geometry": { "type": "Point", "coordinates": [ -82.412112307208318, 36.137296793242648 ] } },
{ "type": "Feature", "properties": { "OBJECTID": 1060, "NAME": "Little Milligan Elem. School", "OWNER": "Carter County", "OWNTYPE": "County", "FULLADDR": "4226 US 321 Hwy, Butler, TN 37640", "MUNICIPALITY": "Carter County", "STATE": "TN", "LOCATIONTYPE": "Elementary School", "last_edited_date": "2019-08-09T13:03:09Z", "JCGRID": null }, "geometry": { "type": "Point", "coordinates": [ -82.020129487607178, 36.313863176441842 ] } },
{ "type": "Feature", "properties": { "OBJECTID": 1061, "NAME": "T A Dugger Junior HS", "OWNER": "Elizabethton", "OWNTYPE": "Municipal", "FULLADDR": "306 W E St, Elizabethton, TN 37643", "MUNICIPALITY": "Elizabethton", "STATE": "TN", "LOCATIONTYPE": "Junior High School", "last_edited_date": "2022-12-20T18:48:16Z", "JCGRID": null }, "geometry": { "type": "Point", "coordinates": [ -82.228980394264738, 36.347922323788261 ] } },
{ "type": "Feature", "properties": { "OBJECTID": 1062, "NAME": "Washington Co. Dept of Education", "OWNER": "Washington County", "OWNTYPE": "County", "FULLADDR": "411 W College St, Jonesborough, TN 37659", "MUNICIPALITY": "Jonesborough", "STATE": "TN", "LOCATIONTYPE": "Administration", "last_edited_date": "2019-08-09T13:03:09Z", "JCGRID": null }, "geometry": { "type": "Point", "coordinates": [ -82.478788000331207, 36.293129320077782 ] } },
{ "type": "Feature", "properties": { "OBJECTID": 1063, "NAME": "Hunter Elem. School", "OWNER": "Carter County", "OWNTYPE": "County", "FULLADDR": "145 Hope St, Elizabethton, TN 37643", "MUNICIPALITY": "Carter County", "STATE": "TN", "LOCATIONTYPE": "Elementary School", "last_edited_date": "2019-08-09T13:03:09Z", "JCGRID": null }, "geometry": { "type": "Point", "coordinates": [ -82.159811600116058, 36.372207808663916 ] } },
{ "type": "Feature", "properties": { "OBJECTID": 1064, "NAME": "Happy Valley HS", "OWNER": "Carter County", "OWNTYPE": "County", "FULLADDR": "121 Warpath Ln, Elizabethton, TN 37643", "MUNICIPALITY": "Elizabethton", "STATE": "TN", "LOCATIONTYPE": "High School", "last_edited_date": "2020-02-25T18:36:29Z", "JCGRID": null }, "geometry": { "type": "Point", "coordinates": [ -82.279410130208348, 36.315468419791593 ] } },
{ "type": "Feature", "properties": { "OBJECTID": 1065, "NAME": "Rock Creek Elem. School", "OWNER": "Unicoi County", "OWNTYPE": "County", "FULLADDR": "1121 E Erwin Rd, Erwin, TN 37650", "MUNICIPALITY": "Unicoi County", "STATE": "TN", "LOCATIONTYPE": "Elementary School", "last_edited_date": "2019-08-09T13:03:09Z", "JCGRID": null }, "geometry": { "type": "Point", "coordinates": [ -82.388980004792643, 36.149143215945834 ] } },
{ "type": "Feature", "properties": { "OBJECTID": 1066, "NAME": "Unaka HS", "OWNER": "Carter County", "OWNTYPE": "County", "FULLADDR": "119 Robinson Ln, Elizabethton, TN 37643", "MUNICIPALITY": "Carter County", "STATE": "TN", "LOCATIONTYPE": "High School", "last_edited_date": "2020-02-25T18:36:48Z", "JCGRID": null }, "geometry": { "type": "Point", "coordinates": [ -82.145425331186232, 36.385007153138034 ] } },
{ "type": "Feature", "properties": { "OBJECTID": 1067, "NAME": "Hampton Elem. School", "OWNER": "Carter County", "OWNTYPE": "County", "FULLADDR": "408 US 321 Hwy, Hampton, TN, 37658", "MUNICIPALITY": "Carter County", "STATE": "TN", "LOCATIONTYPE": "Elementary School", "last_edited_date": "2022-12-20T19:12:56Z", "JCGRID": null }, "geometry": { "type": "Point", "coordinates": [ -82.167265957630704, 36.284977024973266 ] } },
{ "type": "Feature", "properties": { "OBJECTID": 1068, "NAME": "Harold McCormick Elem. School", "OWNER": "Elizabethton", "OWNTYPE": "Municipal", "FULLADDR": "226 Cedar Av, Elizabethton, TN 37643", "MUNICIPALITY": "Elizabethton", "STATE": "TN", "LOCATIONTYPE": "Elementary School", "last_edited_date": "2019-08-09T13:03:09Z", "JCGRID": null }, "geometry": { "type": "Point", "coordinates": [ -82.21595899020015, 36.344844659337745 ] } },
{ "type": "Feature", "properties": { "OBJECTID": 1069, "NAME": "Keenburg Elem. School", "OWNER": "Carter County", "OWNTYPE": "County", "FULLADDR": "139 Keenburg Rd, Elizabethton, TN 37643", "MUNICIPALITY": "Carter County", "STATE": "TN", "LOCATIONTYPE": "Elementary School", "last_edited_date": "2019-08-09T13:03:09Z", "JCGRID": null }, "geometry": { "type": "Point", "coordinates": [ -82.221386641194897, 36.378404724745181 ] } },
{ "type": "Feature", "properties": { "OBJECTID": 1070, "NAME": "Cloudland HS", "OWNER": "Carter County", "OWNTYPE": "County", "FULLADDR": "109 General Johnson St, Roan Mountain, TN 37687", "MUNICIPALITY": "Carter County", "STATE": "TN", "LOCATIONTYPE": "High School", "last_edited_date": "2019-08-09T13:03:09Z", "JCGRID": null }, "geometry": { "type": "Point", "coordinates": [ -82.062444174740207, 36.193400651118239 ] } },
{ "type": "Feature", "properties": { "OBJECTID": 1071, "NAME": "Flag Pond Elem. School", "OWNER": "Unicoi County", "OWNTYPE": "County", "FULLADDR": "4400 Old Asheville Hwy, Flag Pond, TN 37657", "MUNICIPALITY": "Unicoi County", "STATE": "TN", "LOCATIONTYPE": "Elementary School", "last_edited_date": "2019-08-09T13:03:09Z", "JCGRID": null }, "geometry": { "type": "Point", "coordinates": [ -82.556512295432412, 36.016554062291789 ] } },
{ "type": "Feature", "properties": { "OBJECTID": 1072, "NAME": "Valley Forge Elem. School", "OWNER": "Carter County", "OWNTYPE": "County", "FULLADDR": "1485 Riverview Dr, Elizabethton, TN 37643", "MUNICIPALITY": "Carter County", "STATE": "TN", "LOCATIONTYPE": "Elementary School", "last_edited_date": "2019-08-09T13:03:09Z", "JCGRID": null }, "geometry": { "type": "Point", "coordinates": [ -82.192826331999328, 36.310752887915392 ] } },
{ "type": "Feature", "properties": { "OBJECTID": 1073, "NAME": "Happy Valley Elem. School", "OWNER": "Carter County", "OWNTYPE": "County", "FULLADDR": "1840 Milligan Hwy, Elizabethton, TN 37643", "MUNICIPALITY": "Elizabethton", "STATE": "TN", "LOCATIONTYPE": "Elementary School", "last_edited_date": "2022-12-20T18:48:16Z", "JCGRID": null }, "geometry": { "type": "Point", "coordinates": [ -82.285450460719716, 36.315343177618608 ] } },
{ "type": "Feature", "properties": { "OBJECTID": 1074, "NAME": "Hampton HS", "OWNER": "Carter County", "OWNTYPE": "County", "FULLADDR": "764 First Av, Hampton, TN, 37658", "MUNICIPALITY": "Carter County", "STATE": "TN", "LOCATIONTYPE": "High School", "last_edited_date": "2019-08-09T13:03:09Z", "JCGRID": null }, "geometry": { "type": "Point", "coordinates": [ -82.176154623191366, 36.276175309301891 ] } },
{ "type": "Feature", "properties": { "OBJECTID": 1075, "NAME": "Happy Valley Middle School", "OWNER": "Carter County", "OWNTYPE": "County", "FULLADDR": "163 Warpath Ln, Elizabethton, TN 37643", "MUNICIPALITY": "Elizabethton", "STATE": "TN", "LOCATIONTYPE": "Middle School", "last_edited_date": "2020-02-25T18:36:13Z", "JCGRID": null }, "geometry": { "type": "Point", "coordinates": [ -82.281582873057033, 36.313608832307196 ] } },
{ "type": "Feature", "properties": { "OBJECTID": 1076, "NAME": "Temple Hill Elem. School", "OWNER": "Unicoi County", "OWNTYPE": "County", "FULLADDR": "797 Old Highway Rd, Erwin, TN 37650", "MUNICIPALITY": "Unicoi County", "STATE": "TN", "LOCATIONTYPE": "Elementary School", "last_edited_date": "2022-12-19T21:08:00Z", "JCGRID": null }, "geometry": { "type": "Point", "coordinates": [ -82.484260474272176, 36.087191138493431 ] } },
{ "type": "Feature", "properties": { "OBJECTID": 1077, "NAME": "Cherokee Elem. School", "OWNER": "Johnson City", "OWNTYPE": "Municipal", "FULLADDR": "2100 Cherokee Rd, Johnson City, TN 37604", "MUNICIPALITY": "Johnson City", "STATE": "TN", "LOCATIONTYPE": "Elementary School", "last_edited_date": "2022-08-01T14:48:14Z", "JCGRID": "M-16" }, "geometry": { "type": "Point", "coordinates": [ -82.380274233168521, 36.280677233378526 ] } },
{ "type": "Feature", "properties": { "OBJECTID": 1079, "NAME": "Elizabethton High School", "OWNER": "Elizabethton", "OWNTYPE": "Municipal", "FULLADDR": "907 Jason Witten Way, Elizabethton, TN 37643", "MUNICIPALITY": "Elizabethton", "STATE": "TN", "LOCATIONTYPE": "High School", "last_edited_date": "2020-02-25T18:37:07Z", "JCGRID": null }, "geometry": { "type": "Point", "coordinates": [ -82.239883065128438, 36.346687711787553 ] } },
{ "type": "Feature", "properties": { "OBJECTID": 1080, "NAME": "Fall Branch Elem. School", "OWNER": "Washington County", "OWNTYPE": "County", "FULLADDR": "1061 Highway 93, Fall Branch, TN 37656", "MUNICIPALITY": "Washington County", "STATE": "TN", "LOCATIONTYPE": "Elementary School", "last_edited_date": "2020-11-06T16:57:52Z", "JCGRID": null }, "geometry": { "type": "Point", "coordinates": [ -82.619441181745302, 36.41071060237109 ] } },
{ "type": "Feature", "properties": { "OBJECTID": 1081, "NAME": "Liberty Bell Middle School", "OWNER": "Johnson City", "OWNTYPE": "Municipal", "FULLADDR": "718 Morningside Dr, Johnson City, TN 37604", "MUNICIPALITY": "Johnson City", "STATE": "TN", "LOCATIONTYPE": "Middle School", "last_edited_date": "2022-08-19T18:28:17Z", "JCGRID": "N-12" }, "geometry": { "type": "Point", "coordinates": [ -82.374121135869174, 36.323277039385395 ] } },
{ "type": "Feature", "properties": { "OBJECTID": 1082, "NAME": "Mountain View Elem. School", "OWNER": "Johnson City", "OWNTYPE": "Municipal", "FULLADDR": "907 King Springs Rd, Johnson City, TN 37601", "MUNICIPALITY": "Johnson City", "STATE": "TN", "LOCATIONTYPE": "Elementary School", "last_edited_date": "2022-08-01T14:48:14Z", "JCGRID": "Q-12" }, "geometry": { "type": "Point", "coordinates": [ -82.331855712091169, 36.315961106153381 ] } },
{ "type": "Feature", "properties": { "OBJECTID": 1083, "NAME": "North Side Elem. School", "OWNER": "Johnson City", "OWNTYPE": "Municipal", "FULLADDR": "1000 N Roan St, Johnson City, TN 37601", "MUNICIPALITY": "Johnson City", "STATE": "TN", "LOCATIONTYPE": "Elementary School", "last_edited_date": "2022-08-01T14:48:14Z", "JCGRID": "O-12" }, "geometry": { "type": "Point", "coordinates": [ -82.359304181313334, 36.324204643716087 ] } },
{ "type": "Feature", "properties": { "OBJECTID": 1084, "NAME": "Quillen College of Medicine (ETSU)", "OWNER": "State of Tennessee", "OWNTYPE": "State", "FULLADDR": "178 Maple Ave, Johnson City, TN 37604", "MUNICIPALITY": "Johnson City", "STATE": "TN", "LOCATIONTYPE": "University", "last_edited_date": "2024-01-04T14:26:36Z", "JCGRID": "M-13" }, "geometry": { "type": "Point", "coordinates": [ -82.378765516310821, 36.309230429180879 ] } },
{ "type": "Feature", "properties": { "OBJECTID": 1085, "NAME": "Ridgeview Elem. School", "OWNER": "Washington County", "OWNTYPE": "County", "FULLADDR": "252 Sam Jenkins, Johnson City, TN 37615", "MUNICIPALITY": "Washington County", "STATE": "TN", "LOCATIONTYPE": "Elementary School", "last_edited_date": "2024-01-04T14:26:36Z", "JCGRID": "B-6" }, "geometry": { "type": "Point", "coordinates": [ -82.504499424786232, 36.393203501830442 ] } },
{ "type": "Feature", "properties": { "OBJECTID": 1086, "NAME": "Tri City SDA School", "OWNER": "Georgia Conf. of Seventh Day Adventists", "OWNTYPE": "Private", "FULLADDR": "314 Delmer Salts Rd, Gray, TN 37615", "MUNICIPALITY": "Washington County", "STATE": "TN", "LOCATIONTYPE": "Elementary School", "last_edited_date": "2019-08-09T12:29:13Z", "JCGRID": null }, "geometry": { "type": "Point", "coordinates": [ -82.498202507858409, 36.400743693918436 ] } },
{ "type": "Feature", "properties": { "OBJECTID": 1087, "NAME": "South Side Elem. School", "OWNER": "Johnson City", "OWNTYPE": "Municipal", "FULLADDR": "1011 Southwest Ave, Johnson City, TN 37604", "MUNICIPALITY": "Johnson City", "STATE": "TN", "LOCATIONTYPE": "Elementary School", "last_edited_date": "2022-08-01T14:48:14Z", "JCGRID": "O-13" }, "geometry": { "type": "Point", "coordinates": [ -82.355834446991039, 36.307164871701701 ] } },
{ "type": "Feature", "properties": { "OBJECTID": 1088, "NAME": "West View Elem. School", "OWNER": "Washington County", "OWNTYPE": "County", "FULLADDR": "2847 Old State Rt 34, Limestone, TN 37681", "MUNICIPALITY": "Washington County", "STATE": "TN", "LOCATIONTYPE": "Elementary School", "last_edited_date": "2020-11-06T16:57:56Z", "JCGRID": null }, "geometry": { "type": "Point", "coordinates": [ -82.591373929148276, 36.223573553847849 ] } },
{ "type": "Feature", "properties": { "OBJECTID": 1089, "NAME": "Unicoi County Vocational School", "OWNER": "Unicoi County", "OWNTYPE": "County", "FULLADDR": "100 Okolona Dr, Erwin, TN 37650", "MUNICIPALITY": "Unicoi County", "STATE": "TN", "LOCATIONTYPE": "Vocational School", "last_edited_date": "2020-02-25T18:39:49Z", "JCGRID": null }, "geometry": { "type": "Point", "coordinates": [ -82.408981872962869, 36.136927583693037 ] } },
{ "type": "Feature", "properties": { "OBJECTID": 1090, "NAME": "Love Chapel Elem. School", "OWNER": "Unicoi County", "OWNTYPE": "County", "FULLADDR": "600 S Mohawk Dr, Erwin, TN 37650", "MUNICIPALITY": "Unicoi County", "STATE": "TN", "LOCATIONTYPE": "Elementary School", "last_edited_date": "2019-08-09T13:03:09Z", "JCGRID": null }, "geometry": { "type": "Point", "coordinates": [ -82.41064477433612, 36.136547169925969 ] } },
{ "type": "Feature", "properties": { "OBJECTID": 1091, "NAME": "Unicoi County Elem. School", "OWNER": "Unicoi County", "OWNTYPE": "County", "FULLADDR": "404 Massachusetts St, Unicoi, TN 37692", "MUNICIPALITY": "Unicoi County", "STATE": "TN", "LOCATIONTYPE": "Elementary School", "last_edited_date": "2020-02-25T18:39:41Z", "JCGRID": null }, "geometry": { "type": "Point", "coordinates": [ -82.354225325376419, 36.196219107874605 ] } },
{ "type": "Feature", "properties": { "OBJECTID": 1092, "NAME": "Sullivan North HS", "OWNER": "Sullivan County", "OWNTYPE": "County", "FULLADDR": "2533 N John B Dennis Hwy, Kingsport, TN 37660", "MUNICIPALITY": "Sullivan County", "STATE": "TN", "LOCATIONTYPE": "High School", "last_edited_date": "2020-02-25T18:38:47Z", "JCGRID": null }, "geometry": { "type": "Point", "coordinates": [ -82.501078107929885, 36.559928334464665 ] } },
{ "type": "Feature", "properties": { "OBJECTID": 1093, "NAME": "Central Heights Elem. School", "OWNER": "Sullivan County", "OWNTYPE": "County", "FULLADDR": "158 Central Heights Rd, Blountville, TN 37617", "MUNICIPALITY": "Sullivan County", "STATE": "TN", "LOCATIONTYPE": "Elementary School", "last_edited_date": "2019-08-09T13:03:09Z", "JCGRID": null }, "geometry": { "type": "Point", "coordinates": [ -82.35996015590537, 36.578745905373303 ] } },
{ "type": "Feature", "properties": { "OBJECTID": 1094, "NAME": "Brookside Elem. School", "OWNER": "Sullivan County", "OWNTYPE": "County", "FULLADDR": "149 Brookside School Ln, Kingsport, TN 37660", "MUNICIPALITY": "Sullivan County", "STATE": "TN", "LOCATIONTYPE": "Elementary School", "last_edited_date": "2019-08-09T13:03:09Z", "JCGRID": null }, "geometry": { "type": "Point", "coordinates": [ -82.505713310659161, 36.574307328051901 ] } },
{ "type": "Feature", "properties": { "OBJECTID": 1095, "NAME": "Blountville Middle School", "OWNER": "Sullivan County", "OWNTYPE": "County", "FULLADDR": "1651 Blountville Blvd, Blountville, TN 37617", "MUNICIPALITY": "Sullivan County", "STATE": "TN", "LOCATIONTYPE": "Middle School", "last_edited_date": "2020-02-25T18:38:37Z", "JCGRID": null }, "geometry": { "type": "Point", "coordinates": [ -82.315825919818224, 36.533738065857442 ] } },
{ "type": "Feature", "properties": { "OBJECTID": 1096, "NAME": "Blountville Elem. School", "OWNER": "Sullivan County", "OWNTYPE": "County", "FULLADDR": "1651 Blountville Blvd, Blountville, TN 37617", "MUNICIPALITY": "Sullivan County", "STATE": "TN", "LOCATIONTYPE": "Elementary School", "last_edited_date": "2020-02-25T18:38:43Z", "JCGRID": null }, "geometry": { "type": "Point", "coordinates": [ -82.314405567730844, 36.534578654008186 ] } },
{ "type": "Feature", "properties": { "OBJECTID": 1097, "NAME": "Kinsley Elem. School", "OWNER": "Sullivan County", "OWNTYPE": "County", "FULLADDR": "100 Emory Ln, Kingsport, TN 37660", "MUNICIPALITY": "Sullivan County", "STATE": "TN", "LOCATIONTYPE": "Elementary School", "last_edited_date": "2019-08-09T13:03:09Z", "JCGRID": null }, "geometry": { "type": "Point", "coordinates": [ -82.491020151612801, 36.585238266316168 ] } },
{ "type": "Feature", "properties": { "OBJECTID": 1098, "NAME": "Indian Springs Elem. School", "OWNER": "Sullivan County", "OWNTYPE": "County", "FULLADDR": "333 Hill Rd, Kingsport, TN 37664", "MUNICIPALITY": "Sullivan County", "STATE": "TN", "LOCATIONTYPE": "Elementary School", "last_edited_date": "2019-08-09T13:03:09Z", "JCGRID": null }, "geometry": { "type": "Point", "coordinates": [ -82.423220551410139, 36.539317706368131 ] } },
{ "type": "Feature", "properties": { "OBJECTID": 1099, "NAME": "Sullivan East HS", "OWNER": "Sullivan County", "OWNTYPE": "County", "FULLADDR": "4180 Weaver Pike, Bluff City, TN 37618", "MUNICIPALITY": "Sullivan County", "STATE": "TN", "LOCATIONTYPE": "High School", "last_edited_date": "2020-02-25T18:38:30Z", "JCGRID": null }, "geometry": { "type": "Point", "coordinates": [ -82.208873754695276, 36.505423517802015 ] } },
{ "type": "Feature", "properties": { "OBJECTID": 1100, "NAME": "Weaver Elem. School", "OWNER": "Sullivan County", "OWNTYPE": "County", "FULLADDR": "3341 Weaver Pike, Bluff City, TN 37618", "MUNICIPALITY": "Sullivan County", "STATE": "TN", "LOCATIONTYPE": "Elementary School", "last_edited_date": "2019-08-09T13:03:09Z", "JCGRID": null }, "geometry": { "type": "Point", "coordinates": [ -82.185687074523287, 36.525700364700441 ] } },
{ "type": "Feature", "properties": { "OBJECTID": 1101, "NAME": "Bluff City Middle School", "OWNER": "Sullivan County", "OWNTYPE": "County", "FULLADDR": "337 Carter St, Bluff City, TN 37618", "MUNICIPALITY": "Sullivan County", "STATE": "TN", "LOCATIONTYPE": "Middle School", "last_edited_date": "2020-02-25T18:38:23Z", "JCGRID": null }, "geometry": { "type": "Point", "coordinates": [ -82.259600715593493, 36.472223095248886 ] } },
{ "type": "Feature", "properties": { "OBJECTID": 1102, "NAME": "Bluff City Elem. School", "OWNER": "Sullivan County", "OWNTYPE": "County", "FULLADDR": "282 J Thomas Forrest Dr, Bluff City, TN 37618", "MUNICIPALITY": "Sullivan County", "STATE": "TN", "LOCATIONTYPE": "Elementary School", "last_edited_date": "2020-02-25T18:38:18Z", "JCGRID": null }, "geometry": { "type": "Point", "coordinates": [ -82.262117093082139, 36.472419957558536 ] } },
{ "type": "Feature", "properties": { "OBJECTID": 1103, "NAME": "Colonial Heights Middle School", "OWNER": "Sullivan County", "OWNTYPE": "County", "FULLADDR": "415 Lebanon Rd, Kingsport, TN 37663", "MUNICIPALITY": "Kingsport", "STATE": "TN", "LOCATIONTYPE": "Middle School", "last_edited_date": "2019-08-09T13:03:09Z", "JCGRID": null }, "geometry": { "type": "Point", "coordinates": [ -82.500669245959372, 36.477150190554404 ] } },
{ "type": "Feature", "properties": { "OBJECTID": 1104, "NAME": "Holston Elementary School", "OWNER": "Sullivan County", "OWNTYPE": "County", "FULLADDR": "2348 TN-75, Blountville, TN 37617", "MUNICIPALITY": "Sullivan County", "STATE": "TN", "LOCATIONTYPE": "Elementary School", "last_edited_date": "2020-02-25T18:38:10Z", "JCGRID": null }, "geometry": { "type": "Point", "coordinates": [ -82.414363395630303, 36.489014417043975 ] } },
{ "type": "Feature", "properties": { "OBJECTID": 1105, "NAME": "Innovation Academy of Northeast TN", "OWNER": "Sullivan County", "OWNTYPE": "County", "FULLADDR": "2348 State 75 HWY, Blountville, TN 37617", "MUNICIPALITY": "Sullivan County", "STATE": "TN", "LOCATIONTYPE": "Academy", "last_edited_date": "2019-08-09T13:03:09Z", "JCGRID": null }, "geometry": { "type": "Point", "coordinates": [ -82.413886495626272, 36.489940441918336 ] } },
{ "type": "Feature", "properties": { "OBJECTID": 1106, "NAME": "Sullivan Central HS", "OWNER": "Sullivan County", "OWNTYPE": "County", "FULLADDR": "131 Shipley Ferry Rd, Blountville, TN 37617", "MUNICIPALITY": "Sullivan County", "STATE": "TN", "LOCATIONTYPE": "High School", "last_edited_date": "2019-08-09T13:03:09Z", "JCGRID": null }, "geometry": { "type": "Point", "coordinates": [ -82.387463129605393, 36.52969935814248 ] } },
{ "type": "Feature", "properties": { "OBJECTID": 1107, "NAME": "Mary Hughes Elem. School", "OWNER": "Sullivan County", "OWNTYPE": "County", "FULLADDR": "240 N Austin Springs Rd, Piney Flats, TN 37686 ", "MUNICIPALITY": "Sullivan County", "STATE": "TN", "LOCATIONTYPE": "Elementary School", "last_edited_date": "2024-01-04T14:26:36Z", "JCGRID": "S-3" }, "geometry": { "type": "Point", "coordinates": [ -82.306881286900293, 36.418523515133153 ] } },
{ "type": "Feature", "properties": { "OBJECTID": 1108, "NAME": "Holston Valley Middle School", "OWNER": "Sullivan County", "OWNTYPE": "County", "FULLADDR": "1717 Bristol Caverns Hwy, Bristol, TN 37620", "MUNICIPALITY": "Sullivan County", "STATE": "TN", "LOCATIONTYPE": "Middle School", "last_edited_date": "2020-02-25T18:38:06Z", "JCGRID": null }, "geometry": { "type": "Point", "coordinates": [ -82.101892808371986, 36.554493004892464 ] } },
{ "type": "Feature", "properties": { "OBJECTID": 1109, "NAME": "Miller Perry Elem. School", "OWNER": "Sullivan County", "OWNTYPE": "County", "FULLADDR": "904 Fordtown Rd, Kingsport, TN 37663", "MUNICIPALITY": "Sullivan County", "STATE": "TN", "LOCATIONTYPE": "Elementary School", "last_edited_date": "2019-08-09T13:03:09Z", "JCGRID": null }, "geometry": { "type": "Point", "coordinates": [ -82.508280006881378, 36.452741554637988 ] } },
{ "type": "Feature", "properties": { "OBJECTID": 1110, "NAME": "Ketron Middle School", "OWNER": "Sullivan County", "OWNTYPE": "County", "FULLADDR": "3301 Bloomingdale Rd, Kingsport, TN 37660", "MUNICIPALITY": "Sullivan County", "STATE": "TN", "LOCATIONTYPE": "Middle School", "last_edited_date": "2019-08-09T13:03:09Z", "JCGRID": null }, "geometry": { "type": "Point", "coordinates": [ -82.485926000610476, 36.582591370508098 ] } },
{ "type": "Feature", "properties": { "OBJECTID": 1111, "NAME": "John F. Kennedy Elem. School", "OWNER": "Kingsport", "OWNTYPE": "Municipal", "FULLADDR": "1500 Woodland Avenue, Kingsport, TN", "MUNICIPALITY": "Kingsport", "STATE": "TN", "LOCATIONTYPE": "Elementary School", "last_edited_date": "2019-08-09T13:03:09Z", "JCGRID": null }, "geometry": { "type": "Point", "coordinates": [ -82.569815199083337, 36.579440522108264 ] } },
{ "type": "Feature", "properties": { "OBJECTID": 1112, "NAME": "Theodore Roosevelt Elem. School", "OWNER": "Kingsport", "OWNTYPE": "Municipal", "FULLADDR": "1051 Lake St, Kingsport, TN 37660", "MUNICIPALITY": "Kingsport", "STATE": "TN", "LOCATIONTYPE": "Elementary School", "last_edited_date": "2019-08-09T13:03:09Z", "JCGRID": null }, "geometry": { "type": "Point", "coordinates": [ -82.576862307484774, 36.562644405641279 ] } },
{ "type": "Feature", "properties": { "OBJECTID": 1113, "NAME": "Emmett Elem. School", "OWNER": "Sullivan County", "OWNTYPE": "County", "FULLADDR": "753 Emmett Rd, Bristol, TN 37620", "MUNICIPALITY": "Sullivan County", "STATE": "TN", "LOCATIONTYPE": "Elementary School", "last_edited_date": "2019-08-09T13:03:09Z", "JCGRID": null }, "geometry": { "type": "Point", "coordinates": [ -82.115248347663311, 36.527839185849437 ] } },
{ "type": "Feature", "properties": { "OBJECTID": 1114, "NAME": "Sullivan Middle School", "OWNER": "Sullivan County", "OWNTYPE": "County", "FULLADDR": "4154 Sullivan Gardens Dr, Kingsport, TN 37660", "MUNICIPALITY": "Sullivan County", "STATE": "TN", "LOCATIONTYPE": "Middle School", "last_edited_date": "2020-02-25T18:37:55Z", "JCGRID": null }, "geometry": { "type": "Point", "coordinates": [ -82.593798454545976, 36.478704416699223 ] } },
{ "type": "Feature", "properties": { "OBJECTID": 1115, "NAME": "Sullivan Gardens Elem. School", "OWNER": "Sullivan County", "OWNTYPE": "County", "FULLADDR": "209 Rosemont St, Kingsport, TN 37660", "MUNICIPALITY": "Sullivan County", "STATE": "TN", "LOCATIONTYPE": "Elementary School", "last_edited_date": "2019-08-09T13:03:09Z", "JCGRID": null }, "geometry": { "type": "Point", "coordinates": [ -82.594677679061149, 36.480183486085842 ] } },
{ "type": "Feature", "properties": { "OBJECTID": 1116, "NAME": "Sullivan County School Maintenance", "OWNER": "Sullivan County", "OWNTYPE": "County", "FULLADDR": "259 Franklin Dr, Blountville, TN 37617", "MUNICIPALITY": "Sullivan County", "STATE": "TN", "LOCATIONTYPE": "Maintenance Building", "last_edited_date": "2019-08-09T13:03:09Z", "JCGRID": null }, "geometry": { "type": "Point", "coordinates": [ -82.325047560188736, 36.531280091773823 ] } },
{ "type": "Feature", "properties": { "OBJECTID": 1117, "NAME": "Sullivan South HS", "OWNER": "Sullivan County", "OWNTYPE": "County", "FULLADDR": "1236 Moreland Dr, Kingsport, TN 37664", "MUNICIPALITY": "Sullivan County", "STATE": "TN", "LOCATIONTYPE": "High School", "last_edited_date": "2020-02-25T18:37:49Z", "JCGRID": null }, "geometry": { "type": "Point", "coordinates": [ -82.534235418708818, 36.49050031531641 ] } },
{ "type": "Feature", "properties": { "OBJECTID": 1118, "NAME": "Rock Springs Elem. School", "OWNER": "Sullivan County", "OWNTYPE": "County", "FULLADDR": "1238 Moreland Dr, Kingsport, TN 37664 ", "MUNICIPALITY": "Sullivan County", "STATE": "TN", "LOCATIONTYPE": "Elementary School", "last_edited_date": "2019-08-09T13:03:09Z", "JCGRID": null }, "geometry": { "type": "Point", "coordinates": [ -82.537315795980319, 36.486675690545894 ] } },
{ "type": "Feature", "properties": { "OBJECTID": 1519, "NAME": "Sullivan East Middle School", "OWNER": "Sullivan County", "OWNTYPE": "County", "FULLADDR": "4500 Weaver Pike, Bluff City, TN  37618", "MUNICIPALITY": "Sullivan County", "STATE": "TN", "LOCATIONTYPE": "Middle School", "last_edited_date": "2020-02-25T18:36:07Z", "JCGRID": null }, "geometry": { "type": "Point", "coordinates": [ -82.205632467505609, 36.49301705077005 ] } },
{ "type": "Feature", "properties": { "OBJECTID": 1520, "NAME": "Ashely Academy", "OWNER": "Private", "OWNTYPE": "Private", "FULLADDR": "2615 S Roan St, Johnson City, TN 37601", "MUNICIPALITY": "Johnson City", "STATE": "TN", "LOCATIONTYPE": "Academy", "last_edited_date": "2022-08-09T12:57:32Z", "JCGRID": "M-12" }, "geometry": { "type": "Point", "coordinates": [ -82.329741178992478, 36.296075882482619 ] } },
{ "type": "Feature", "properties": { "OBJECTID": 1521, "NAME": "Central Elementary School", "OWNER": "Carter County", "OWNTYPE": "County", "FULLADDR": "252 TAYLOR TOWN RD", "MUNICIPALITY": "Carter County", "STATE": "TN", "LOCATIONTYPE": "Elementary School", "last_edited_date": "2022-12-20T19:04:21Z", "JCGRID": null }, "geometry": { "type": "Point", "coordinates": [ -82.287260541385791, 36.332202886003465 ] } },
{ "type": "Feature", "properties": { "OBJECTID": 1523, "NAME": "Unaka Elementary School", "OWNER": "Carter County", "OWNTYPE": "County", "FULLADDR": "120 UNAKA DR", "MUNICIPALITY": "Carter County", "STATE": "TN", "LOCATIONTYPE": "Elementary School", "last_edited_date": "2022-12-20T19:10:41Z", "JCGRID": null }, "geometry": { "type": "Point", "coordinates": [ -82.0930215440506, 36.406766449782275 ] } },
{ "type": "Feature", "properties": { "OBJECTID": 1525, "NAME": "Tri-Cities Christian School", "OWNER": "Sullivan County ", "OWNTYPE": "Private", "FULLADDR": "1500 HIGHWAY 75", "MUNICIPALITY": "Sullivan County", "STATE": "TN", "LOCATIONTYPE": "Academy", "last_edited_date": "2022-12-20T19:55:34Z", "JCGRID": null }, "geometry": { "type": "Point", "coordinates": [ -82.388897538911607, 36.509977198759941 ] } }
]
}
