{
"type": "FeatureCollection",
"name": "Fire_Stations",
"crs": { "type": "name", "properties": { "name": "urn:ogc:def:crs:OGC:1.3:CRS84" } },
"features": [
{ "type": "Feature", "properties": { "OBJECTID": 100, "FACILITYID": "3", "NAME": "Central Fire Hall", "OWNER": "City of Johnson City", "OWNTYPE": "Municipal", "FULLADDR": "505 E Main St, Johnson City, TN 37601", "AGENCYURL": "https://www.johnsoncitytn.org/services/public_safety/fire_department.php", "PHONE": "423-975-2841", "LADDER": " ", "YR_BUILT": "1930", "JCGRID": null }, "geometry": { "type": "Point", "coordinates": [ -82.343987970675627, 36.320365257800319 ] } },
{ "type": "Feature", "properties": { "OBJECTID": 101, "FACILITYID": "7", "NAME": "W Walnut Street", "OWNER": "City of Johnson City", "OWNTYPE": "Municipal", "FULLADDR": "2830 W Walnut St, Johnson City, TN 37604", "AGENCYURL": "https://www.johnsoncitytn.org/services/public_safety/fire_department.php", "PHONE": "423-975-2851", "LADDER": " ", "YR_BUILT": "1990", "JCGRID": null }, "geometry": { "type": "Point", "coordinates": [ -82.397706327025887, 36.298531923408198 ] } },
{ "type": "Feature", "properties": { "OBJECTID": 102, "FACILITYID": "5", "NAME": "L.L. Geisler", "OWNER": "City of Johnson City", "OWNTYPE": "Municipal", "FULLADDR": "205 Broyles Dr, Johnson City, TN 37601", "AGENCYURL": "https://www.johnsoncitytn.org/services/public_safety/fire_department.php", "PHONE": "423-283-5804", "LADDER": "Y", "YR_BUILT": "1962", "JCGRID": null }, "geometry": { "type": "Point", "coordinates": [ -82.372420461200335, 36.344547120628114 ] } },
{ "type": "Feature", "properties": { "OBJECTID": 103, "FACILITYID": "4", "NAME": "Ed Seaton", "OWNER": "City of Johnson City", "OWNTYPE": "Municipal", "FULLADDR": "800 W Main St, Johnson City, TN 37604", "AGENCYURL": "https://www.johnsoncitytn.org/services/public_safety/fire_department.php", "PHONE": "423-975-2850", "LADDER": "Y", "YR_BUILT": "1971", "JCGRID": null }, "geometry": { "type": "Point", "coordinates": [ -82.369477027802404, 36.315473388873578 ] } },
{ "type": "Feature", "properties": { "OBJECTID": 104, "FACILITYID": "2", "NAME": "Clarence H. Eades", "OWNER": "City of Johnson City", "OWNTYPE": "Municipal", "FULLADDR": "702 Cherokee, Johnson City, TN 37604", "AGENCYURL": "https://www.johnsoncitytn.org/services/public_safety/fire_department.php", "PHONE": "423-975-2849", "LADDER": "Y", "YR_BUILT": "1978", "JCGRID": null }, "geometry": { "type": "Point", "coordinates": [ -82.35297111835159, 36.300150501198694 ] } },
{ "type": "Feature", "properties": { "OBJECTID": 105, "FACILITYID": "1", "NAME": "Douglas W. Buckles", "OWNER": "City of Johnson City", "OWNTYPE": "Municipal", "FULLADDR": "2238 Watauga Rd, Johnson City, TN 37601", "AGENCYURL": "https://www.johnsoncitytn.org/services/public_safety/fire_department.php", "PHONE": "423-975-2848", "LADDER": " ", "YR_BUILT": "1998", "JCGRID": null }, "geometry": { "type": "Point", "coordinates": [ -82.332930198825792, 36.347458670624704 ] } },
{ "type": "Feature", "properties": { "OBJECTID": 106, "FACILITYID": "6", "NAME": "Fire Station 6", "OWNER": "City of Johnson City", "OWNTYPE": "Municipal", "FULLADDR": "4501 Browns Mill Blvd, Johnson City, TN 37615", "AGENCYURL": "https://www.johnsoncitytn.org/services/public_safety/fire_department.php", "PHONE": "423-283-5814", "LADDER": " ", "YR_BUILT": "2003", "JCGRID": null }, "geometry": { "type": "Point", "coordinates": [ -82.422106062297544, 36.379394996805466 ] } },
{ "type": "Feature", "properties": { "OBJECTID": 107, "FACILITYID": "8", "NAME": "Gray Station", "OWNER": "City of Johnson City", "OWNTYPE": "Municipal", "FULLADDR": "106 Gray Commons Cir, Johnson City, TN 37615", "AGENCYURL": "https://www.johnsoncitytn.org/services/public_safety/fire_department.php", "PHONE": "423-467-5851", "LADDER": " ", "YR_BUILT": "1998", "JCGRID": null }, "geometry": { "type": "Point", "coordinates": [ -82.487683252733973, 36.398512846479086 ] } },
{ "type": "Feature", "properties": { "OBJECTID": 108, "FACILITYID": "JB", "NAME": "Jonesborough Fire Dept", "OWNER": "Jonesborough", "OWNTYPE": "Municipal", "FULLADDR": "123 Boone St, Jonesborough, TN 37659", "AGENCYURL": "https://www.jonesboroughtn.org/index.php/town-services/town-services/public-safety/ps-fire-depo", "PHONE": "423-752-1053", "LADDER": null, "YR_BUILT": null, "JCGRID": null }, "geometry": { "type": "Point", "coordinates": [ -82.470458356916154, 36.297844550542138 ] } },
{ "type": "Feature", "properties": { "OBJECTID": 109, "FACILITYID": "9", "NAME": "Fire Station 9", "OWNER": "City of Johnson City", "OWNTYPE": "Municipal", "FULLADDR": "105 Carroll Creek Rd, Johnson City, TN 37601", "AGENCYURL": "https://www.johnsoncitytn.org/services/public_safety/fire_department.php", "PHONE": "423-282-2526", "LADDER": null, "YR_BUILT": "2008", "JCGRID": null }, "geometry": { "type": "Point", "coordinates": [ -82.359062512804968, 36.391709574502983 ] } },
{ "type": "Feature", "properties": { "OBJECTID": 110, "FACILITYID": "A", "NAME": "Administrative Builidng", "OWNER": "City of Johnson City", "OWNTYPE": "Municipal", "FULLADDR": "603 Bert St; Johnson City, TN 37601", "AGENCYURL": "https://www.johnsoncitytn.org/services/public_safety/fire_department.php", "PHONE": "423-975-2840", "LADDER": null, "YR_BUILT": "1930", "JCGRID": null }, "geometry": { "type": "Point", "coordinates": [ -82.338053476895766, 36.319973775039422 ] } },
{ "type": "Feature", "properties": { "OBJECTID": 111, "FACILITYID": "0", "NAME": "West Carter County VFD", "OWNER": "Carter County", "OWNTYPE": "County", "FULLADDR": "1420 Milligan Hwy, Johnson City, TN 37601", "AGENCYURL": "https://sites.google.com/site/westcarterfire/", "PHONE": "423-926-8802", "LADDER": null, "YR_BUILT": null, "JCGRID": null }, "geometry": { "type": "Point", "coordinates": [ -82.309610414391088, 36.297126786660549 ] } },
{ "type": "Feature", "properties": { "OBJECTID": 112, "FACILITYID": "0", "NAME": "Hampton VFD", "OWNER": "Carter County", "OWNTYPE": "County", "FULLADDR": "401 Fourth Av", "AGENCYURL": "http://www.countyoffice.org/tn-carter-county-fire-departments/", "PHONE": null, "LADDER": null, "YR_BUILT": null, "JCGRID": null }, "geometry": { "type": "Point", "coordinates": [ -82.168090921791162, 36.283117791448888 ] } },
{ "type": "Feature", "properties": { "OBJECTID": 113, "FACILITYID": "0", "NAME": "Elizabethton Fire Station 3", "OWNER": "City of Elizabethton", "OWNTYPE": "Municipal", "FULLADDR": "100 Buck Van Huss Rd, Elizabethton, TN 37643", "AGENCYURL": "http://www.elizabethton.org/departments/fire/index.php", "PHONE": "423-547-6380", "LADDER": null, "YR_BUILT": null, "JCGRID": null }, "geometry": { "type": "Point", "coordinates": [ -82.272167660419939, 36.322206788537869 ] } },
{ "type": "Feature", "properties": { "OBJECTID": 114, "FACILITYID": "0", "NAME": "Nolichuckey VFD", "OWNER": "Washington County", "OWNTYPE": "County", "FULLADDR": "2634 Highway 107, Chuckey, TN 37641", "AGENCYURL": null, "PHONE": "423-257-2803", "LADDER": null, "YR_BUILT": null, "JCGRID": null }, "geometry": { "type": "Point", "coordinates": [ -82.598363583521163, 36.152185885780007 ] } },
{ "type": "Feature", "properties": { "OBJECTID": 115, "FACILITYID": "0", "NAME": "Fall Branch VFD", "OWNER": "Washington County", "OWNTYPE": "County", "FULLADDR": "106 Ruritan Rd, Fall Branch, TN 37656", "AGENCYURL": null, "PHONE": "423-348-7171", "LADDER": null, "YR_BUILT": null, "JCGRID": null }, "geometry": { "type": "Point", "coordinates": [ -82.618828880762663, 36.411769626123828 ] } },
{ "type": "Feature", "properties": { "OBJECTID": 116, "FACILITYID": "0", "NAME": "Embreeville VFD", "OWNER": "Washington County", "OWNTYPE": "County", "FULLADDR": "4061 Highway 81 S, Erwin, TN 37650", "AGENCYURL": null, "PHONE": "423-753-5551", "LADDER": null, "YR_BUILT": null, "JCGRID": null }, "geometry": { "type": "Point", "coordinates": [ -82.457044786761628, 36.182643503525128 ] } },
{ "type": "Feature", "properties": { "OBJECTID": 117, "FACILITYID": "0", "NAME": "Limestone VFD", "OWNER": "Washington County", "OWNTYPE": "County", "FULLADDR": "3865 Old State Route 34, Limestone, TN, 37681", "AGENCYURL": null, "PHONE": "423-257-2571", "LADDER": null, "YR_BUILT": null, "JCGRID": null }, "geometry": { "type": "Point", "coordinates": [ -82.631424029480144, 36.22498022971542 ] } },
{ "type": "Feature", "properties": { "OBJECTID": 118, "FACILITYID": "0", "NAME": "Gray VFD", "OWNER": "Washington County", "OWNTYPE": "County", "FULLADDR": "107 Gray Station Rd, Gray, TN 37615", "AGENCYURL": "http://www.grayvfd.org/", "PHONE": "423-477-3851", "LADDER": null, "YR_BUILT": null, "JCGRID": null }, "geometry": { "type": "Point", "coordinates": [ -82.485062378577638, 36.415074669208828 ] } },
{ "type": "Feature", "properties": { "OBJECTID": 119, "FACILITYID": "0", "NAME": "Sulphur Springs VFD", "OWNER": "Washington County", "OWNTYPE": "County", "FULLADDR": "1309 Gray Station Sulphur Springs Rd; Jonesborough, TN 37659 ", "AGENCYURL": "http://www.ssvfd911.org/", "PHONE": "423-753-8954", "LADDER": null, "YR_BUILT": null, "JCGRID": null }, "geometry": { "type": "Point", "coordinates": [ -82.537366439762437, 36.352968035618652 ] } },
{ "type": "Feature", "properties": { "OBJECTID": 120, "FACILITYID": "0", "NAME": "Piney Flats VFD", "OWNER": "Sullivan County", "OWNTYPE": "County", "FULLADDR": "125 Industrial Park Rd, Piney Flats, TN   37686", "AGENCYURL": null, "PHONE": "423-538-7011", "LADDER": null, "YR_BUILT": null, "JCGRID": null }, "geometry": { "type": "Point", "coordinates": [ -82.309115465113081, 36.430932593646126 ] } },
{ "type": "Feature", "properties": { "OBJECTID": 121, "FACILITYID": "0", "NAME": "Southside VFD", "OWNER": "Unicoi County", "OWNTYPE": "County", "FULLADDR": "1295 Carolina Ave, Erwin, TN 37650", "AGENCYURL": null, "PHONE": "423-743-1881", "LADDER": null, "YR_BUILT": null, "JCGRID": null }, "geometry": { "type": "Point", "coordinates": [ -82.435684215924539, 36.125635449448545 ] } },
{ "type": "Feature", "properties": { "OBJECTID": 122, "FACILITYID": "0", "NAME": "Unicoi Volunteer Fire Dept", "OWNER": "Unicoi County", "OWNTYPE": "County", "FULLADDR": null, "AGENCYURL": null, "PHONE": "423-743-7921", "LADDER": null, "YR_BUILT": null, "JCGRID": null }, "geometry": { "type": "Point", "coordinates": [ -82.349997601919753, 36.19787327611639 ] } },
{ "type": "Feature", "properties": { "OBJECTID": 123, "FACILITYID": "0", "NAME": "Erwin Fire Dept", "OWNER": "City of Erwin", "OWNTYPE": "County", "FULLADDR": "305 Broad St, Erwin, TN 37650", "AGENCYURL": "https://www.erwintn.org/fire-department", "PHONE": "423-743-3131", "LADDER": null, "YR_BUILT": null, "JCGRID": null }, "geometry": { "type": "Point", "coordinates": [ -82.409358975430578, 36.148564767034578 ] } },
{ "type": "Feature", "properties": { "OBJECTID": 124, "FACILITYID": "0", "NAME": "Limestone Cove VFD", "OWNER": "Washington County", "OWNTYPE": "County", "FULLADDR": "4320 Simerley Creek Rd, Unicoi, TN 37692", "AGENCYURL": null, "PHONE": "423-743-9007", "LADDER": null, "YR_BUILT": null, "JCGRID": null }, "geometry": { "type": "Point", "coordinates": [ -82.260918047599603, 36.18136133736661 ] } },
{ "type": "Feature", "properties": { "OBJECTID": 125, "FACILITYID": "0", "NAME": "Elizabethton Fire Station 1", "OWNER": "City of Elizabethton", "OWNTYPE": "Municipal", "FULLADDR": "121 S Sycamore St", "AGENCYURL": "http://www.elizabethton.org/departments/fire/index.php", "PHONE": "423-542-5421", "LADDER": null, "YR_BUILT": null, "JCGRID": null }, "geometry": { "type": "Point", "coordinates": [ -82.214593527111759, 36.346752619576797 ] } }
]
}
