{
"type": "FeatureCollection",
"name": "Transit_Stops",
"crs": { "type": "name", "properties": { "name": "urn:ogc:def:crs:OGC:1.3:CRS84" } },
"features": [
{ "type": "Feature", "properties": { "OBJECTID": 1, "Stop_Code": 1001, "Stop_Name": "N. Boone & W. Fairview", "Seating": null, "stop_lon_X": -82.35644816, "stop_lat_Y": 36.31909572, "last_edited_date": "2023-12-08T21:27:07Z" }, "geometry": { "type": "Point", "coordinates": [ -82.356451914611839, 36.319102773016404 ] } },
{ "type": "Feature", "properties": { "OBJECTID": 2, "Stop_Code": 1002, "Stop_Name": "N. Boone & W. Watauga", "Seating": null, "stop_lon_X": -82.357504, "stop_lat_Y": 36.320093, "last_edited_date": "2023-12-08T21:27:07Z" }, "geometry": { "type": "Point", "coordinates": [ -82.357507755483809, 36.320100053405056 ] } },
{ "type": "Feature", "properties": { "OBJECTID": 3, "Stop_Code": 1003, "Stop_Name": "N. Roan - Btwn Watauga & Unaka", "Seating": null, "stop_lon_X": -82.356837, "stop_lat_Y": 36.321787, "last_edited_date": "2023-12-08T21:27:07Z" }, "geometry": { "type": "Point", "coordinates": [ -82.35684075537057, 36.321794053279675 ] } },
{ "type": "Feature", "properties": { "OBJECTID": 4, "Stop_Code": 1004, "Stop_Name": "N. Roan & E. Chilhowie - N. Side School", "Seating": "Bench", "stop_lon_X": -82.359563, "stop_lat_Y": 36.323677, "last_edited_date": "2023-12-08T21:27:07Z" }, "geometry": { "type": "Point", "coordinates": [ -82.359566755630155, 36.32368405393332 ] } },
{ "type": "Feature", "properties": { "OBJECTID": 5, "Stop_Code": 1005, "Stop_Name": "N. Roan - Btwn 9th & 10th", "Seating": "Bench", "stop_lon_X": -82.361685, "stop_lat_Y": 36.325105, "last_edited_date": "2023-12-08T21:27:07Z" }, "geometry": { "type": "Point", "coordinates": [ -82.361688756492683, 36.32511205414815 ] } },
{ "type": "Feature", "properties": { "OBJECTID": 6, "Stop_Code": 1006, "Stop_Name": "N. Roan & E. 11th", "Seating": null, "stop_lon_X": -82.36333, "stop_lat_Y": 36.326242, "last_edited_date": "2023-12-08T21:27:07Z" }, "geometry": { "type": "Point", "coordinates": [ -82.363333757184606, 36.326249054171967 ] } },
{ "type": "Feature", "properties": { "OBJECTID": 7, "Stop_Code": 1007, "Stop_Name": "N. Roan & Belmeade", "Seating": null, "stop_lon_X": -82.366127, "stop_lat_Y": 36.328117, "last_edited_date": "2023-12-08T21:27:07Z" }, "geometry": { "type": "Point", "coordinates": [ -82.366130757796185, 36.328124053951669 ] } },
{ "type": "Feature", "properties": { "OBJECTID": 8, "Stop_Code": 1008, "Stop_Name": "N. Roan & Ridgemont", "Seating": null, "stop_lon_X": -82.368636, "stop_lat_Y": 36.329287, "last_edited_date": "2023-12-08T21:27:07Z" }, "geometry": { "type": "Point", "coordinates": [ -82.36863975922121, 36.329294054613293 ] } },
{ "type": "Feature", "properties": { "OBJECTID": 9, "Stop_Code": 1009, "Stop_Name": "N. Roan & Hillside", "Seating": null, "stop_lon_X": -82.371276, "stop_lat_Y": 36.333233, "last_edited_date": "2023-12-08T21:27:07Z" }, "geometry": { "type": "Point", "coordinates": [ -82.371279759605159, 36.333240055406968 ] } },
{ "type": "Feature", "properties": { "OBJECTID": 10, "Stop_Code": 1010, "Stop_Name": "N. Roan - Clifton", "Seating": "Bench", "stop_lon_X": -82.37401529, "stop_lat_Y": 36.33856588, "last_edited_date": "2023-12-08T21:27:07Z" }, "geometry": { "type": "Point", "coordinates": [ -82.374019051005277, 36.338572936211008 ] } },
{ "type": "Feature", "properties": { "OBJECTID": 11, "Stop_Code": 1011, "Stop_Name": "N. Roan - Parkwy Ctr", "Seating": null, "stop_lon_X": -82.37490713, "stop_lat_Y": 36.34039783, "last_edited_date": "2023-12-08T21:27:07Z" }, "geometry": { "type": "Point", "coordinates": [ -82.374910891181699, 36.340404886579414 ] } },
{ "type": "Feature", "properties": { "OBJECTID": 13, "Stop_Code": 1013, "Stop_Name": "Broyles & Princeton", "Seating": null, "stop_lon_X": -82.37544357, "stop_lat_Y": 36.34412341, "last_edited_date": "2023-12-08T21:27:07Z" }, "geometry": { "type": "Point", "coordinates": [ -82.375447331608555, 36.344130467664357 ] } },
{ "type": "Feature", "properties": { "OBJECTID": 14, "Stop_Code": 1014, "Stop_Name": "Princeton - Holiday Plaza/Colonial Ctr", "Seating": null, "stop_lon_X": -82.374848, "stop_lat_Y": 36.345377, "last_edited_date": "2023-12-08T21:27:07Z" }, "geometry": { "type": "Point", "coordinates": [ -82.374851761780263, 36.345384057117293 ] } },
{ "type": "Feature", "properties": { "OBJECTID": 15, "Stop_Code": 1015, "Stop_Name": "Princeton & Brown", "Seating": null, "stop_lon_X": -82.373978, "stop_lat_Y": 36.347094, "last_edited_date": "2023-12-08T21:27:07Z" }, "geometry": { "type": "Point", "coordinates": [ -82.373981761118031, 36.347101057563265 ] } },
{ "type": "Feature", "properties": { "OBJECTID": 25, "Stop_Code": 1025, "Stop_Name": "Princeton - Evergreen Nursery", "Seating": null, "stop_lon_X": -82.367763, "stop_lat_Y": 36.355454, "last_edited_date": "2023-12-08T21:27:07Z" }, "geometry": { "type": "Point", "coordinates": [ -82.367766760626481, 36.355461059632951 ] } },
{ "type": "Feature", "properties": { "OBJECTID": 26, "Stop_Code": 1026, "Stop_Name": "Princeton & E. Oakland", "Seating": null, "stop_lon_X": -82.3656, "stop_lat_Y": 36.35728, "last_edited_date": "2023-12-08T21:27:07Z" }, "geometry": { "type": "Point", "coordinates": [ -82.3656037599157, 36.357287060798463 ] } },
{ "type": "Feature", "properties": { "OBJECTID": 27, "Stop_Code": 1027, "Stop_Name": "E. Oakland & Austin Springs", "Seating": null, "stop_lon_X": -82.36348896, "stop_lat_Y": 36.35652058, "last_edited_date": "2023-12-08T21:27:07Z" }, "geometry": { "type": "Point", "coordinates": [ -82.363492718973419, 36.35652764055655 ] } },
{ "type": "Feature", "properties": { "OBJECTID": 28, "Stop_Code": 1028, "Stop_Name": "E. Oakland - Morris Baker", "Seating": null, "stop_lon_X": -82.36002087, "stop_lat_Y": 36.3519273, "last_edited_date": "2023-12-08T21:27:07Z" }, "geometry": { "type": "Point", "coordinates": [ -82.360024627554921, 36.351934359769267 ] } },
{ "type": "Feature", "properties": { "OBJECTID": 30, "Stop_Code": 1030, "Stop_Name": "E. Lakeview - St Mary's Church", "Seating": null, "stop_lon_X": -82.3517543, "stop_lat_Y": 36.35305249, "last_edited_date": "2023-12-08T21:27:07Z" }, "geometry": { "type": "Point", "coordinates": [ -82.351758055150754, 36.353059550091579 ] } },
{ "type": "Feature", "properties": { "OBJECTID": 35, "Stop_Code": 1035, "Stop_Name": "E. Unaka - Btwn 2 Churches", "Seating": null, "stop_lon_X": -82.34482213, "stop_lat_Y": 36.33391627, "last_edited_date": "2023-12-08T21:27:07Z" }, "geometry": { "type": "Point", "coordinates": [ -82.344825882303383, 36.333923326729945 ] } },
{ "type": "Feature", "properties": { "OBJECTID": 36, "Stop_Code": 1036, "Stop_Name": "E. Unaka & E. Oakland", "Seating": null, "stop_lon_X": -82.34627589, "stop_lat_Y": 36.33256577, "last_edited_date": "2023-12-08T21:27:07Z" }, "geometry": { "type": "Point", "coordinates": [ -82.346279642904236, 36.332572826127659 ] } },
{ "type": "Feature", "properties": { "OBJECTID": 37, "Stop_Code": 1037, "Stop_Name": "E. Unaka & Lester Harris", "Seating": null, "stop_lon_X": -82.34822049, "stop_lat_Y": 36.33076199, "last_edited_date": "2023-12-08T21:27:07Z" }, "geometry": { "type": "Point", "coordinates": [ -82.34822424320069, 36.330769045745335 ] } },
{ "type": "Feature", "properties": { "OBJECTID": 38, "Stop_Code": 1038, "Stop_Name": "E. Unaka & Stuart", "Seating": null, "stop_lon_X": -82.35134392000001, "stop_lat_Y": 36.32786252, "last_edited_date": "2023-12-08T21:27:07Z" }, "geometry": { "type": "Point", "coordinates": [ -82.351347673862051, 36.327869575298187 ] } },
{ "type": "Feature", "properties": { "OBJECTID": 39, "Stop_Code": 1039, "Stop_Name": "E. Unaka & Oak", "Seating": null, "stop_lon_X": -82.35333278, "stop_lat_Y": 36.32600643, "last_edited_date": "2023-12-08T21:27:07Z" }, "geometry": { "type": "Point", "coordinates": [ -82.353336534499633, 36.326013484474338 ] } },
{ "type": "Feature", "properties": { "OBJECTID": 40, "Stop_Code": 1040, "Stop_Name": "E. Unaka & Welbourne", "Seating": null, "stop_lon_X": -82.35585003, "stop_lat_Y": 36.32357501, "last_edited_date": "2023-12-08T21:27:07Z" }, "geometry": { "type": "Point", "coordinates": [ -82.35585378436015, 36.323582063537081 ] } },
{ "type": "Feature", "properties": { "OBJECTID": 41, "Stop_Code": 1041, "Stop_Name": "N. Roan & W. Watauga", "Seating": null, "stop_lon_X": -82.356512, "stop_lat_Y": 36.321375, "last_edited_date": "2023-12-08T21:27:07Z" }, "geometry": { "type": "Point", "coordinates": [ -82.356515755269939, 36.321382053490524 ] } },
{ "type": "Feature", "properties": { "OBJECTID": 42, "Stop_Code": 1042, "Stop_Name": "N. Roan & W. Fairview", "Seating": null, "stop_lon_X": -82.354907, "stop_lat_Y": 36.32037, "last_edited_date": "2023-12-08T21:27:07Z" }, "geometry": { "type": "Point", "coordinates": [ -82.354910754574163, 36.320377052778113 ] } },
{ "type": "Feature", "properties": { "OBJECTID": 43, "Stop_Code": 1043, "Stop_Name": "N. Roan - Btwn King & Commerce", "Seating": "Bench", "stop_lon_X": -82.352865, "stop_lat_Y": 36.31906, "last_edited_date": "2023-12-08T21:27:07Z" }, "geometry": { "type": "Point", "coordinates": [ -82.352868753507892, 36.319067052878147 ] } },
{ "type": "Feature", "properties": { "OBJECTID": 44, "Stop_Code": 1044, "Stop_Name": "N. Roan - John Sevier Ctr", "Seating": "Bench", "stop_lon_X": -82.35144048, "stop_lat_Y": 36.31821327, "last_edited_date": "2023-12-08T21:27:07Z" }, "geometry": { "type": "Point", "coordinates": [ -82.351444233491264, 36.318220322952946 ] } },
{ "type": "Feature", "properties": { "OBJECTID": 48, "Stop_Code": 1055, "Stop_Name": "King Springs & Stoneybrook", "Seating": null, "stop_lon_X": -82.32010289, "stop_lat_Y": 36.31988831, "last_edited_date": "2023-12-08T21:27:07Z" }, "geometry": { "type": "Point", "coordinates": [ -82.320106634361906, 36.319895364048534 ] } },
{ "type": "Feature", "properties": { "OBJECTID": 49, "Stop_Code": 1056, "Stop_Name": "King Springs & Valley View", "Seating": null, "stop_lon_X": -82.32152982, "stop_lat_Y": 36.3191896, "last_edited_date": "2023-12-08T21:27:07Z" }, "geometry": { "type": "Point", "coordinates": [ -82.321533564443911, 36.319196654439772 ] } },
{ "type": "Feature", "properties": { "OBJECTID": 50, "Stop_Code": 1057, "Stop_Name": "KING SPRINGS - KINGSTON APTS", "Seating": null, "stop_lon_X": -82.32515885, "stop_lat_Y": 36.31678902, "last_edited_date": "2023-12-08T21:27:07Z" }, "geometry": { "type": "Point", "coordinates": [ -82.325162595328095, 36.316796073361758 ] } },
{ "type": "Feature", "properties": { "OBJECTID": 51, "Stop_Code": 1058, "Stop_Name": "King Springs & Bell Ridge", "Seating": "Shelter", "stop_lon_X": -82.32668503, "stop_lat_Y": 36.31587439, "last_edited_date": "2023-12-08T21:27:07Z" }, "geometry": { "type": "Point", "coordinates": [ -82.326688775614599, 36.315881443433952 ] } },
{ "type": "Feature", "properties": { "OBJECTID": 52, "Stop_Code": 1059, "Stop_Name": "King Springs - Mtn View School", "Seating": null, "stop_lon_X": -82.33099534, "stop_lat_Y": 36.31466203, "last_edited_date": "2023-12-08T21:27:07Z" }, "geometry": { "type": "Point", "coordinates": [ -82.330999086306193, 36.31466908291025 ] } },
{ "type": "Feature", "properties": { "OBJECTID": 53, "Stop_Code": 1060, "Stop_Name": "King Springs & Legion", "Seating": null, "stop_lon_X": -82.33348443, "stop_lat_Y": 36.31383323, "last_edited_date": "2023-12-08T21:27:07Z" }, "geometry": { "type": "Point", "coordinates": [ -82.333488177531308, 36.313840282432722 ] } },
{ "type": "Feature", "properties": { "OBJECTID": 54, "Stop_Code": 1061, "Stop_Name": "Legion - Btwn Georgia & Orleans", "Seating": "Bench", "stop_lon_X": -82.33673661, "stop_lat_Y": 36.31536611, "last_edited_date": "2023-12-08T21:27:07Z" }, "geometry": { "type": "Point", "coordinates": [ -82.336740358138371, 36.31537316321154 ] } },
{ "type": "Feature", "properties": { "OBJECTID": 61, "Stop_Code": 1068, "Stop_Name": "S. Broadway - Before Family Dollar", "Seating": "Shelter", "stop_lon_X": -82.33314245, "stop_lat_Y": 36.32378422, "last_edited_date": "2023-12-08T21:27:07Z" }, "geometry": { "type": "Point", "coordinates": [ -82.333146198114775, 36.323791274778586 ] } },
{ "type": "Feature", "properties": { "OBJECTID": 62, "Stop_Code": 1069, "Stop_Name": "Pardee & S. Broadway", "Seating": null, "stop_lon_X": -82.33412682, "stop_lat_Y": 36.32411682, "last_edited_date": "2023-12-08T21:27:07Z" }, "geometry": { "type": "Point", "coordinates": [ -82.334130567967847, 36.324123874468334 ] } },
{ "type": "Feature", "properties": { "OBJECTID": 63, "Stop_Code": 1070, "Stop_Name": "Pardee - Keystone Office", "Seating": "Shelter", "stop_lon_X": -82.33522384, "stop_lat_Y": 36.32310428, "last_edited_date": "2023-12-08T21:27:07Z" }, "geometry": { "type": "Point", "coordinates": [ -82.335227588079746, 36.323111334302411 ] } },
{ "type": "Feature", "properties": { "OBJECTID": 64, "Stop_Code": 1071, "Stop_Name": "Pardee & Jay", "Seating": null, "stop_lon_X": -82.33716979, "stop_lat_Y": 36.32237204, "last_edited_date": "2023-12-08T21:27:07Z" }, "geometry": { "type": "Point", "coordinates": [ -82.337173538586057, 36.32237909470637 ] } },
{ "type": "Feature", "properties": { "OBJECTID": 65, "Stop_Code": 1073, "Stop_Name": "Memorial Park Community Ctr", "Seating": null, "stop_lon_X": -82.3387201, "stop_lat_Y": 36.32019408, "last_edited_date": "2023-12-08T21:27:07Z" }, "geometry": { "type": "Point", "coordinates": [ -82.338723849226568, 36.320201133692429 ] } },
{ "type": "Feature", "properties": { "OBJECTID": 66, "Stop_Code": 1074, "Stop_Name": "E. Main - City Hall", "Seating": "Shelter", "stop_lon_X": -82.34237059, "stop_lat_Y": 36.32070505, "last_edited_date": "2023-12-08T21:27:07Z" }, "geometry": { "type": "Point", "coordinates": [ -82.342374340142783, 36.320712103761892 ] } },
{ "type": "Feature", "properties": { "OBJECTID": 67, "Stop_Code": 1075, "Stop_Name": "Legion - Dairy Queen", "Seating": null, "stop_lon_X": -82.34455391, "stop_lat_Y": 36.3198749, "last_edited_date": "2023-12-08T21:27:07Z" }, "geometry": { "type": "Point", "coordinates": [ -82.344557661196475, 36.319881953342922 ] } },
{ "type": "Feature", "properties": { "OBJECTID": 68, "Stop_Code": 1076, "Stop_Name": "E. Mkt & Colonial Way", "Seating": null, "stop_lon_X": -82.34972923, "stop_lat_Y": 36.31828033, "last_edited_date": "2023-12-08T21:27:07Z" }, "geometry": { "type": "Point", "coordinates": [ -82.349732982074798, 36.318287382687203 ] } },
{ "type": "Feature", "properties": { "OBJECTID": 69, "Stop_Code": 1077, "Stop_Name": "E. Mkt - Downtown Ctr", "Seating": "Bench", "stop_lon_X": -82.35191523, "stop_lat_Y": 36.3173268, "last_edited_date": "2023-12-08T21:27:07Z" }, "geometry": { "type": "Point", "coordinates": [ -82.351918983542831, 36.317333852866142 ] } },
{ "type": "Feature", "properties": { "OBJECTID": 70, "Stop_Code": 1078, "Stop_Name": "E. Mkt - Medical Care", "Seating": null, "stop_lon_X": -82.34723746, "stop_lat_Y": 36.31934114, "last_edited_date": "2023-12-08T21:27:07Z" }, "geometry": { "type": "Point", "coordinates": [ -82.347241212342126, 36.319348193523794 ] } },
{ "type": "Feature", "properties": { "OBJECTID": 71, "Stop_Code": 1101, "Stop_Name": "Buffalo & Cherry", "Seating": null, "stop_lon_X": -82.35252812, "stop_lat_Y": 36.31431334, "last_edited_date": "2023-12-08T21:27:07Z" }, "geometry": { "type": "Point", "coordinates": [ -82.352531873044271, 36.314320392396894 ] } },
{ "type": "Feature", "properties": { "OBJECTID": 72, "Stop_Code": 1102, "Stop_Name": "Buffalo & W. Walnut - Shamrock", "Seating": null, "stop_lon_X": -82.35168724, "stop_lat_Y": 36.31354355, "last_edited_date": "2023-12-08T21:27:07Z" }, "geometry": { "type": "Point", "coordinates": [ -82.351690992999934, 36.313550601750222 ] } },
{ "type": "Feature", "properties": { "OBJECTID": 73, "Stop_Code": 1103, "Stop_Name": "W. Walnut & Earnest", "Seating": null, "stop_lon_X": -82.353151, "stop_lat_Y": 36.312655, "last_edited_date": "2023-12-08T21:27:07Z" }, "geometry": { "type": "Point", "coordinates": [ -82.353154753590275, 36.31266205160734 ] } },
{ "type": "Feature", "properties": { "OBJECTID": 74, "Stop_Code": 1104, "Stop_Name": "W. Walnut & Sevier", "Seating": null, "stop_lon_X": -82.355388, "stop_lat_Y": 36.311426, "last_edited_date": "2023-12-08T21:27:07Z" }, "geometry": { "type": "Point", "coordinates": [ -82.355391754276525, 36.311433051665325 ] } },
{ "type": "Feature", "properties": { "OBJECTID": 75, "Stop_Code": 1105, "Stop_Name": "W. Walnut - Across from Firehouse", "Seating": null, "stop_lon_X": -82.358927, "stop_lat_Y": 36.309857, "last_edited_date": "2023-12-08T21:27:07Z" }, "geometry": { "type": "Point", "coordinates": [ -82.358930754982993, 36.309864050433546 ] } },
{ "type": "Feature", "properties": { "OBJECTID": 76, "Stop_Code": 1106, "Stop_Name": "W. Walnut - Across from Papa John's", "Seating": null, "stop_lon_X": -82.362052, "stop_lat_Y": 36.308475, "last_edited_date": "2023-12-08T21:27:07Z" }, "geometry": { "type": "Point", "coordinates": [ -82.362055756168331, 36.308482050021212 ] } },
{ "type": "Feature", "properties": { "OBJECTID": 77, "Stop_Code": 1107, "Stop_Name": "W. Walnut - McDonalds", "Seating": "Bench", "stop_lon_X": -82.364095, "stop_lat_Y": 36.307542, "last_edited_date": "2023-12-08T21:27:07Z" }, "geometry": { "type": "Point", "coordinates": [ -82.364098755749396, 36.307549049883917 ] } },
{ "type": "Feature", "properties": { "OBJECTID": 78, "Stop_Code": 1108, "Stop_Name": "Gilbreath - Univ School", "Seating": null, "stop_lon_X": -82.36694365, "stop_lat_Y": 36.30543255, "last_edited_date": "2023-12-08T21:27:07Z" }, "geometry": { "type": "Point", "coordinates": [ -82.366947406630587, 36.305439599195324 ] } },
{ "type": "Feature", "properties": { "OBJECTID": 79, "Stop_Code": 1109, "Stop_Name": "Rogers-Stout Hall", "Seating": "Bench", "stop_lon_X": -82.3658587, "stop_lat_Y": 36.30383261, "last_edited_date": "2023-12-08T21:27:07Z" }, "geometry": { "type": "Point", "coordinates": [ -82.365862456871255, 36.303839659305766 ] } },
{ "type": "Feature", "properties": { "OBJECTID": 80, "Stop_Code": 1110, "Stop_Name": "Gilbreath & Seehorn - Sherrod Library", "Seating": null, "stop_lon_X": -82.36495747, "stop_lat_Y": 36.30251162, "last_edited_date": "2023-12-08T21:27:07Z" }, "geometry": { "type": "Point", "coordinates": [ -82.364961226462356, 36.30251866931475 ] } },
{ "type": "Feature", "properties": { "OBJECTID": 81, "Stop_Code": 1111, "Stop_Name": "Southwest - Buc Ridge", "Seating": null, "stop_lon_X": -82.36397847000001, "stop_lat_Y": 36.30099215, "last_edited_date": "2023-12-08T21:27:07Z" }, "geometry": { "type": "Point", "coordinates": [ -82.363982225327234, 36.30099919918225 ] } },
{ "type": "Feature", "properties": { "OBJECTID": 82, "Stop_Code": 1112, "Stop_Name": "Southwest & College Heights", "Seating": null, "stop_lon_X": -82.365796, "stop_lat_Y": 36.296644, "last_edited_date": "2023-12-08T21:27:07Z" }, "geometry": { "type": "Point", "coordinates": [ -82.365799755868693, 36.296651047641781 ] } },
{ "type": "Feature", "properties": { "OBJECTID": 83, "Stop_Code": 1113, "Stop_Name": "Southwest & Cherokee", "Seating": null, "stop_lon_X": -82.364494, "stop_lat_Y": 36.293054, "last_edited_date": "2023-12-08T21:27:07Z" }, "geometry": { "type": "Point", "coordinates": [ -82.364497755477544, 36.293061046871948 ] } },
{ "type": "Feature", "properties": { "OBJECTID": 84, "Stop_Code": 1114, "Stop_Name": "Cherokee & Concord", "Seating": null, "stop_lon_X": -82.36606925, "stop_lat_Y": 36.29163526, "last_edited_date": "2023-12-08T21:27:07Z" }, "geometry": { "type": "Point", "coordinates": [ -82.36607300578352, 36.291642306830781 ] } },
{ "type": "Feature", "properties": { "OBJECTID": 85, "Stop_Code": 1115, "Stop_Name": "Cherokee & Buccaneer", "Seating": "Bench", "stop_lon_X": -82.36935361, "stop_lat_Y": 36.28961824, "last_edited_date": "2023-12-08T21:27:07Z" }, "geometry": { "type": "Point", "coordinates": [ -82.369357366907934, 36.289625286677136 ] } },
{ "type": "Feature", "properties": { "OBJECTID": 86, "Stop_Code": 1116, "Stop_Name": "Cherokee & Paty", "Seating": "None", "stop_lon_X": -82.3719044, "stop_lat_Y": 36.28675901, "last_edited_date": "2023-12-08T21:27:07Z" }, "geometry": { "type": "Point", "coordinates": [ -82.371908157161869, 36.28676605564516 ] } },
{ "type": "Feature", "properties": { "OBJECTID": 87, "Stop_Code": 1117, "Stop_Name": "Cherokee & Brook Hollow", "Seating": "None", "stop_lon_X": -82.37389996, "stop_lat_Y": 36.2851698, "last_edited_date": "2023-12-08T21:27:07Z" }, "geometry": { "type": "Point", "coordinates": [ -82.373903717780365, 36.285176844879302 ] } },
{ "type": "Feature", "properties": { "OBJECTID": 88, "Stop_Code": 1118, "Stop_Name": "Lone Oak - Cherokee School", "Seating": "None", "stop_lon_X": -82.37973242, "stop_lat_Y": 36.28066369, "last_edited_date": "2023-12-08T21:27:07Z" }, "geometry": { "type": "Point", "coordinates": [ -82.379736178774252, 36.280670734220209 ] } },
{ "type": "Feature", "properties": { "OBJECTID": 89, "Stop_Code": 1119, "Stop_Name": "Lone Oak & Brook Hollow", "Seating": "None", "stop_lon_X": -82.380792, "stop_lat_Y": 36.283923, "last_edited_date": "2023-12-08T21:27:07Z" }, "geometry": { "type": "Point", "coordinates": [ -82.380795759884165, 36.283930044507535 ] } },
{ "type": "Feature", "properties": { "OBJECTID": 90, "Stop_Code": 1120, "Stop_Name": "Lone Oak & Eastwood", "Seating": "None", "stop_lon_X": -82.382175, "stop_lat_Y": 36.285506, "last_edited_date": "2023-12-08T21:27:07Z" }, "geometry": { "type": "Point", "coordinates": [ -82.382178759918219, 36.285513044865745 ] } },
{ "type": "Feature", "properties": { "OBJECTID": 91, "Stop_Code": 1121, "Stop_Name": "Lone Oak & Herrin", "Seating": "None", "stop_lon_X": -82.383679, "stop_lat_Y": 36.286497, "last_edited_date": "2023-12-08T21:27:07Z" }, "geometry": { "type": "Point", "coordinates": [ -82.383682760551906, 36.28650404460393 ] } },
{ "type": "Feature", "properties": { "OBJECTID": 92, "Stop_Code": 1122, "Stop_Name": "S. Greenwood - Colony Park", "Seating": "Bench", "stop_lon_X": -82.387368, "stop_lat_Y": 36.292182, "last_edited_date": "2023-12-08T21:27:07Z" }, "geometry": { "type": "Point", "coordinates": [ -82.387371761799486, 36.292189046392124 ] } },
{ "type": "Feature", "properties": { "OBJECTID": 93, "Stop_Code": 1123, "Stop_Name": "S. Greenwood & Seminole", "Seating": "None", "stop_lon_X": -82.386109, "stop_lat_Y": 36.29356, "last_edited_date": "2023-12-08T21:27:07Z" }, "geometry": { "type": "Point", "coordinates": [ -82.386112761726991, 36.293567046691059 ] } },
{ "type": "Feature", "properties": { "OBJECTID": 94, "Stop_Code": 1124, "Stop_Name": "S. Greenwood & Ashley", "Seating": "Bench", "stop_lon_X": -82.381066, "stop_lat_Y": 36.296821, "last_edited_date": "2023-12-08T21:27:07Z" }, "geometry": { "type": "Point", "coordinates": [ -82.381069760158766, 36.296828047554769 ] } },
{ "type": "Feature", "properties": { "OBJECTID": 95, "Stop_Code": 1125, "Stop_Name": "S. Greenwood - Earth Fare/Kroger", "Seating": "Bench", "stop_lon_X": -82.378297, "stop_lat_Y": 36.300627, "last_edited_date": "2023-12-08T21:27:07Z" }, "geometry": { "type": "Point", "coordinates": [ -82.378300759564127, 36.300634048485655 ] } },
{ "type": "Feature", "properties": { "OBJECTID": 96, "Stop_Code": 1126, "Stop_Name": "SOF - Earth Fare", "Seating": "Shelter", "stop_lon_X": -82.376839, "stop_lat_Y": 36.301674, "last_edited_date": "2023-12-08T21:27:07Z" }, "geometry": { "type": "Point", "coordinates": [ -82.37684275990226, 36.301681048862719 ] } },
{ "type": "Feature", "properties": { "OBJECTID": 97, "Stop_Code": 1127, "Stop_Name": "SOF & Jack Vest", "Seating": null, "stop_lon_X": -82.374635, "stop_lat_Y": 36.30273, "last_edited_date": "2023-12-08T21:27:07Z" }, "geometry": { "type": "Point", "coordinates": [ -82.37463875905209, 36.302737048954377 ] } },
{ "type": "Feature", "properties": { "OBJECTID": 98, "Stop_Code": 1128, "Stop_Name": "SOF & Sherrod", "Seating": null, "stop_lon_X": -82.37034, "stop_lat_Y": 36.304894, "last_edited_date": "2023-12-08T21:27:07Z" }, "geometry": { "type": "Point", "coordinates": [ -82.370343757946117, 36.304901049456369 ] } },
{ "type": "Feature", "properties": { "OBJECTID": 99, "Stop_Code": 1129, "Stop_Name": "W. Walnut & Gilbreath", "Seating": null, "stop_lon_X": -82.3666352, "stop_lat_Y": 36.30626805, "last_edited_date": "2023-12-08T21:27:07Z" }, "geometry": { "type": "Point", "coordinates": [ -82.366638956698381, 36.306275099801717 ] } },
{ "type": "Feature", "properties": { "OBJECTID": 100, "Stop_Code": 1130, "Stop_Name": "W. Walnut - McDonalds", "Seating": null, "stop_lon_X": -82.36367, "stop_lat_Y": 36.307538, "last_edited_date": "2023-12-08T21:27:07Z" }, "geometry": { "type": "Point", "coordinates": [ -82.363673755709286, 36.30754505031301 ] } },
{ "type": "Feature", "properties": { "OBJECTID": 101, "Stop_Code": 1131, "Stop_Name": "W. Walnut & Cherokee", "Seating": null, "stop_lon_X": -82.361891, "stop_lat_Y": 36.308348, "last_edited_date": "2023-12-08T21:27:07Z" }, "geometry": { "type": "Point", "coordinates": [ -82.361894755082588, 36.308355050581689 ] } },
{ "type": "Feature", "properties": { "OBJECTID": 102, "Stop_Code": 1132, "Stop_Name": "W. Walnut & Boyd", "Seating": null, "stop_lon_X": -82.358954, "stop_lat_Y": 36.309619, "last_edited_date": "2023-12-08T21:27:07Z" }, "geometry": { "type": "Point", "coordinates": [ -82.358957754386395, 36.309626051029035 ] } },
{ "type": "Feature", "properties": { "OBJECTID": 103, "Stop_Code": 1133, "Stop_Name": "W. Watauga - Univ Edge Apts", "Seating": null, "stop_lon_X": -82.359034, "stop_lat_Y": 36.311707, "last_edited_date": "2023-12-08T21:27:07Z" }, "geometry": { "type": "Point", "coordinates": [ -82.35903775503543, 36.311714051179727 ] } },
{ "type": "Feature", "properties": { "OBJECTID": 104, "Stop_Code": 1134, "Stop_Name": "S. Boone & Lamont", "Seating": null, "stop_lon_X": -82.355572, "stop_lat_Y": 36.313866, "last_edited_date": "2023-12-08T21:27:07Z" }, "geometry": { "type": "Point", "coordinates": [ -82.355575754377412, 36.313873051535289 ] } },
{ "type": "Feature", "properties": { "OBJECTID": 105, "Stop_Code": 1135, "Stop_Name": "W. Watauga - Univ Edge Apts", "Seating": null, "stop_lon_X": -82.359128, "stop_lat_Y": 36.311611, "last_edited_date": "2023-12-08T21:27:07Z" }, "geometry": { "type": "Point", "coordinates": [ -82.359131754761535, 36.311618051597371 ] } },
{ "type": "Feature", "properties": { "OBJECTID": 106, "Stop_Code": 1136, "Stop_Name": "SOF & Univ Pkwy", "Seating": null, "stop_lon_X": -82.364815, "stop_lat_Y": 36.308401, "last_edited_date": "2023-12-08T21:27:07Z" }, "geometry": { "type": "Point", "coordinates": [ -82.364818756663425, 36.308408050565149 ] } },
{ "type": "Feature", "properties": { "OBJECTID": 107, "Stop_Code": 1137, "Stop_Name": "SOF - Carnegie Hotel", "Seating": null, "stop_lon_X": -82.37044661, "stop_lat_Y": 36.30515762, "last_edited_date": "2023-12-08T21:27:07Z" }, "geometry": { "type": "Point", "coordinates": [ -82.370450367391243, 36.305164669116451 ] } },
{ "type": "Feature", "properties": { "OBJECTID": 108, "Stop_Code": 1138, "Stop_Name": "SOF - Regions Bank", "Seating": null, "stop_lon_X": -82.374124, "stop_lat_Y": 36.30323, "last_edited_date": "2023-12-08T21:27:07Z" }, "geometry": { "type": "Point", "coordinates": [ -82.374127759443425, 36.303237048993331 ] } },
{ "type": "Feature", "properties": { "OBJECTID": 109, "Stop_Code": 1139, "Stop_Name": "SOF - Across from Earth Fare", "Seating": "Bench", "stop_lon_X": -82.377623, "stop_lat_Y": 36.301649, "last_edited_date": "2023-12-08T21:27:07Z" }, "geometry": { "type": "Point", "coordinates": [ -82.377626759680638, 36.301656048656554 ] } },
{ "type": "Feature", "properties": { "OBJECTID": 110, "Stop_Code": 1140, "Stop_Name": "W. Walnut & Lovelace", "Seating": null, "stop_lon_X": -82.382536, "stop_lat_Y": 36.302084, "last_edited_date": "2023-12-08T21:27:07Z" }, "geometry": { "type": "Point", "coordinates": [ -82.382539761300492, 36.302091048103691 ] } },
{ "type": "Feature", "properties": { "OBJECTID": 111, "Stop_Code": 1141, "Stop_Name": "W. Walnut & St. Clair", "Seating": null, "stop_lon_X": -82.38541, "stop_lat_Y": 36.301609, "last_edited_date": "2023-12-08T21:27:07Z" }, "geometry": { "type": "Point", "coordinates": [ -82.385413762639132, 36.301616048285183 ] } },
{ "type": "Feature", "properties": { "OBJECTID": 112, "Stop_Code": 1142, "Stop_Name": "W. Walnut - Burlington Industries", "Seating": "Shelter", "stop_lon_X": -82.387226, "stop_lat_Y": 36.30203, "last_edited_date": "2023-12-08T21:27:07Z" }, "geometry": { "type": "Point", "coordinates": [ -82.38722976293252, 36.302037047796432 ] } },
{ "type": "Feature", "properties": { "OBJECTID": 113, "Stop_Code": 1143, "Stop_Name": "W. Walnut - Before RR Bridge", "Seating": null, "stop_lon_X": -82.391132, "stop_lat_Y": 36.301474, "last_edited_date": "2023-12-08T21:27:07Z" }, "geometry": { "type": "Point", "coordinates": [ -82.391135763944988, 36.301481047922138 ] } },
{ "type": "Feature", "properties": { "OBJECTID": 114, "Stop_Code": 1144, "Stop_Name": "W. Walnut & L.P. Auer", "Seating": null, "stop_lon_X": -82.394314, "stop_lat_Y": 36.30014, "last_edited_date": "2023-12-08T21:27:07Z" }, "geometry": { "type": "Point", "coordinates": [ -82.394317764635517, 36.300147047207481 ] } },
{ "type": "Feature", "properties": { "OBJECTID": 115, "Stop_Code": 1145, "Stop_Name": "W. Walnut - Cottage Colony", "Seating": null, "stop_lon_X": -82.396007, "stop_lat_Y": 36.298961, "last_edited_date": "2023-12-08T21:27:07Z" }, "geometry": { "type": "Point", "coordinates": [ -82.39601076507347, 36.298968046798286 ] } },
{ "type": "Feature", "properties": { "OBJECTID": 116, "Stop_Code": 1146, "Stop_Name": "W. Walnut & Carter Sells", "Seating": null, "stop_lon_X": -82.39956, "stop_lat_Y": 36.29797, "last_edited_date": "2023-12-08T21:27:07Z" }, "geometry": { "type": "Point", "coordinates": [ -82.399563766671719, 36.297977046486466 ] } },
{ "type": "Feature", "properties": { "OBJECTID": 117, "Stop_Code": 1147, "Stop_Name": "Carter Sells - Ramblewood", "Seating": "Bench", "stop_lon_X": -82.40003272, "stop_lat_Y": 36.30044364, "last_edited_date": "2023-12-08T21:27:07Z" }, "geometry": { "type": "Point", "coordinates": [ -82.400036486312004, 36.300450687499364 ] } },
{ "type": "Feature", "properties": { "OBJECTID": 118, "Stop_Code": 1148, "Stop_Name": "Mayfield & Carter Sells", "Seating": null, "stop_lon_X": -82.400978, "stop_lat_Y": 36.302555, "last_edited_date": "2023-12-08T21:27:07Z" }, "geometry": { "type": "Point", "coordinates": [ -82.400981766885721, 36.302562047691403 ] } },
{ "type": "Feature", "properties": { "OBJECTID": 119, "Stop_Code": 1149, "Stop_Name": "Mayfield & Blakemore #1", "Seating": null, "stop_lon_X": -82.402909, "stop_lat_Y": 36.302519, "last_edited_date": "2023-12-08T21:27:07Z" }, "geometry": { "type": "Point", "coordinates": [ -82.402912767865075, 36.30252604735076 ] } },
{ "type": "Feature", "properties": { "OBJECTID": 120, "Stop_Code": 1150, "Stop_Name": "Mayfield & Miner", "Seating": null, "stop_lon_X": -82.405102, "stop_lat_Y": 36.302475, "last_edited_date": "2023-12-08T21:27:07Z" }, "geometry": { "type": "Point", "coordinates": [ -82.405105767494703, 36.30248204788009 ] } },
{ "type": "Feature", "properties": { "OBJECTID": 121, "Stop_Code": 1151, "Stop_Name": "Mayfield & Blakemore #2", "Seating": null, "stop_lon_X": -82.407634, "stop_lat_Y": 36.302411, "last_edited_date": "2023-12-08T21:27:07Z" }, "geometry": { "type": "Point", "coordinates": [ -82.407637769153112, 36.302418047376044 ] } },
{ "type": "Feature", "properties": { "OBJECTID": 122, "Stop_Code": 1152, "Stop_Name": "Mayfield Apts/Timber Ridge Park", "Seating": "Bench", "stop_lon_X": -82.412047, "stop_lat_Y": 36.300616, "last_edited_date": "2023-12-08T21:27:07Z" }, "geometry": { "type": "Point", "coordinates": [ -82.412050769978961, 36.300623046529438 ] } },
{ "type": "Feature", "properties": { "OBJECTID": 123, "Stop_Code": 1153, "Stop_Name": "Mayfield & W. Walnut", "Seating": null, "stop_lon_X": -82.41483, "stop_lat_Y": 36.298871, "last_edited_date": "2023-12-08T21:27:07Z" }, "geometry": { "type": "Point", "coordinates": [ -82.414833770608794, 36.298878046602731 ] } },
{ "type": "Feature", "properties": { "OBJECTID": 124, "Stop_Code": 1154, "Stop_Name": "W. Walnut & Alta Tree", "Seating": null, "stop_lon_X": -82.413431, "stop_lat_Y": 36.298594, "last_edited_date": "2023-12-08T21:27:07Z" }, "geometry": { "type": "Point", "coordinates": [ -82.41343477006096, 36.298601046284027 ] } },
{ "type": "Feature", "properties": { "OBJECTID": 125, "Stop_Code": 1155, "Stop_Name": "W. Walnut - South Ridge Estates", "Seating": null, "stop_lon_X": -82.407789, "stop_lat_Y": 36.298226, "last_edited_date": "2023-12-08T21:27:07Z" }, "geometry": { "type": "Point", "coordinates": [ -82.407792768187917, 36.298233046837758 ] } },
{ "type": "Feature", "properties": { "OBJECTID": 126, "Stop_Code": 1156, "Stop_Name": "W. Walnut & Huffine", "Seating": null, "stop_lon_X": -82.404913, "stop_lat_Y": 36.298101, "last_edited_date": "2023-12-08T21:27:07Z" }, "geometry": { "type": "Point", "coordinates": [ -82.404916767540485, 36.298108047021657 ] } },
{ "type": "Feature", "properties": { "OBJECTID": 127, "Stop_Code": 1157, "Stop_Name": "W. Walnut & Dresden", "Seating": null, "stop_lon_X": -82.39721, "stop_lat_Y": 36.298137, "last_edited_date": "2023-12-08T21:27:07Z" }, "geometry": { "type": "Point", "coordinates": [ -82.397213764885649, 36.298144047016862 ] } },
{ "type": "Feature", "properties": { "OBJECTID": 128, "Stop_Code": 1158, "Stop_Name": "W. Walnut & Antioch", "Seating": null, "stop_lon_X": -82.388382, "stop_lat_Y": 36.301781, "last_edited_date": "2023-12-08T21:27:07Z" }, "geometry": { "type": "Point", "coordinates": [ -82.388385762861802, 36.301788047599011 ] } },
{ "type": "Feature", "properties": { "OBJECTID": 129, "Stop_Code": 1159, "Stop_Name": "W. Walnut & Treadway", "Seating": null, "stop_lon_X": -82.383357, "stop_lat_Y": 36.301993, "last_edited_date": "2023-12-08T21:27:07Z" }, "geometry": { "type": "Point", "coordinates": [ -82.383360761832705, 36.302000047966786 ] } },
{ "type": "Feature", "properties": { "OBJECTID": 130, "Stop_Code": 1160, "Stop_Name": "SOF & Gilbreath", "Seating": null, "stop_lon_X": -82.36714, "stop_lat_Y": 36.306748, "last_edited_date": "2023-12-08T21:27:07Z" }, "geometry": { "type": "Point", "coordinates": [ -82.367143757070664, 36.306755049635754 ] } },
{ "type": "Feature", "properties": { "OBJECTID": 131, "Stop_Code": 1161, "Stop_Name": "W. Watauga & Wilson", "Seating": null, "stop_lon_X": -82.35981434, "stop_lat_Y": 36.31543048, "last_edited_date": "2023-12-08T21:27:07Z" }, "geometry": { "type": "Point", "coordinates": [ -82.359818094952104, 36.315437532039624 ] } },
{ "type": "Feature", "properties": { "OBJECTID": 132, "Stop_Code": 1201, "Stop_Name": "W. Mkt & Orchard", "Seating": "Bench", "stop_lon_X": -82.376545, "stop_lat_Y": 36.314564, "last_edited_date": "2023-12-08T21:27:07Z" }, "geometry": { "type": "Point", "coordinates": [ -82.376548760787628, 36.314571051406581 ] } },
{ "type": "Feature", "properties": { "OBJECTID": 133, "Stop_Code": 1202, "Stop_Name": "W. Mkt - Mkt St Ctr", "Seating": null, "stop_lon_X": -82.380187, "stop_lat_Y": 36.313634, "last_edited_date": "2023-12-08T21:27:07Z" }, "geometry": { "type": "Point", "coordinates": [ -82.380190761864625, 36.313641050755336 ] } },
{ "type": "Feature", "properties": { "OBJECTID": 134, "Stop_Code": 1203, "Stop_Name": "W. Mkt & Lamons", "Seating": "Bench", "stop_lon_X": -82.382976, "stop_lat_Y": 36.312924, "last_edited_date": "2023-12-08T21:27:07Z" }, "geometry": { "type": "Point", "coordinates": [ -82.382979761870644, 36.312931050698616 ] } },
{ "type": "Feature", "properties": { "OBJECTID": 135, "Stop_Code": 1204, "Stop_Name": "SOF - MSHA Rehab/Community Health Center", "Seating": "Shelter", "stop_lon_X": -82.3868671, "stop_lat_Y": 36.30932041, "last_edited_date": "2023-12-08T21:27:07Z" }, "geometry": { "type": "Point", "coordinates": [ -82.386870862741262, 36.309327459271103 ] } },
{ "type": "Feature", "properties": { "OBJECTID": 136, "Stop_Code": 1205, "Stop_Name": "325 SOF - ETSU Phys", "Seating": null, "stop_lon_X": -82.38651707, "stop_lat_Y": 36.30685278, "last_edited_date": "2023-12-08T21:27:07Z" }, "geometry": { "type": "Point", "coordinates": [ -82.386520832872236, 36.306859829049145 ] } },
{ "type": "Feature", "properties": { "OBJECTID": 137, "Stop_Code": 1206, "Stop_Name": "315 SOF - Prof. Park", "Seating": null, "stop_lon_X": -82.38644867, "stop_lat_Y": 36.30493768, "last_edited_date": "2023-12-08T21:27:07Z" }, "geometry": { "type": "Point", "coordinates": [ -82.386452432643111, 36.304944728487428 ] } },
{ "type": "Feature", "properties": { "OBJECTID": 138, "Stop_Code": 1207, "Stop_Name": "Prof. Park & McKinley", "Seating": null, "stop_lon_X": -82.38855, "stop_lat_Y": 36.304285, "last_edited_date": "2023-12-08T21:27:07Z" }, "geometry": { "type": "Point", "coordinates": [ -82.388553762702969, 36.304292048797961 ] } },
{ "type": "Feature", "properties": { "OBJECTID": 139, "Stop_Code": 1208, "Stop_Name": "S. North - Near McKinley", "Seating": null, "stop_lon_X": -82.395636, "stop_lat_Y": 36.306026, "last_edited_date": "2023-12-08T21:27:07Z" }, "geometry": { "type": "Point", "coordinates": [ -82.395639765569555, 36.30603304888573 ] } },
{ "type": "Feature", "properties": { "OBJECTID": 140, "Stop_Code": 1209, "Stop_Name": "S. North & First", "Seating": null, "stop_lon_X": -82.39561, "stop_lat_Y": 36.30749, "last_edited_date": "2023-12-08T21:27:07Z" }, "geometry": { "type": "Point", "coordinates": [ -82.395613765931415, 36.307497048555852 ] } },
{ "type": "Feature", "properties": { "OBJECTID": 141, "Stop_Code": 1210, "Stop_Name": "S. North & W. Mkt", "Seating": "Bench", "stop_lon_X": -82.395558, "stop_lat_Y": 36.309486, "last_edited_date": "2023-12-08T21:27:07Z" }, "geometry": { "type": "Point", "coordinates": [ -82.395561765366921, 36.309493049742358 ] } },
{ "type": "Feature", "properties": { "OBJECTID": 142, "Stop_Code": 1211, "Stop_Name": "SOF - Waffle House", "Seating": null, "stop_lon_X": -82.387664, "stop_lat_Y": 36.312934, "last_edited_date": "2023-12-08T21:27:07Z" }, "geometry": { "type": "Point", "coordinates": [ -82.387667763845869, 36.312941050237271 ] } },
{ "type": "Feature", "properties": { "OBJECTID": 143, "Stop_Code": 1212, "Stop_Name": "City View Apts", "Seating": "Bench", "stop_lon_X": -82.38802581, "stop_lat_Y": 36.31538354, "last_edited_date": "2023-12-08T21:27:07Z" }, "geometry": { "type": "Point", "coordinates": [ -82.388029573800438, 36.315390590383146 ] } },
{ "type": "Feature", "properties": { "OBJECTID": 144, "Stop_Code": 1213, "Stop_Name": "Briarcliff", "Seating": "Shelter", "stop_lon_X": -82.387821, "stop_lat_Y": 36.31474, "last_edited_date": "2023-12-08T21:27:07Z" }, "geometry": { "type": "Point", "coordinates": [ -82.387824763806634, 36.314747050713251 ] } },
{ "type": "Feature", "properties": { "OBJECTID": 146, "Stop_Code": 1215, "Stop_Name": "S. Roan & W. Pine", "Seating": null, "stop_lon_X": -82.34752, "stop_lat_Y": 36.313469, "last_edited_date": "2023-12-08T21:27:07Z" }, "geometry": { "type": "Point", "coordinates": [ -82.347523751704628, 36.313476052033536 ] } },
{ "type": "Feature", "properties": { "OBJECTID": 147, "Stop_Code": 1216, "Stop_Name": "S. Roan & W. Chestnut", "Seating": null, "stop_lon_X": -82.345419, "stop_lat_Y": 36.311033, "last_edited_date": "2023-12-08T21:27:07Z" }, "geometry": { "type": "Point", "coordinates": [ -82.345422750701275, 36.31104005163229 ] } },
{ "type": "Feature", "properties": { "OBJECTID": 148, "Stop_Code": 1217, "Stop_Name": "S. Roan & Highland", "Seating": "Bench", "stop_lon_X": -82.343078, "stop_lat_Y": 36.308873, "last_edited_date": "2023-12-08T21:27:07Z" }, "geometry": { "type": "Point", "coordinates": [ -82.343081749569862, 36.308880051065728 ] } },
{ "type": "Feature", "properties": { "OBJECTID": 149, "Stop_Code": 1218, "Stop_Name": "Highland & Linden", "Seating": null, "stop_lon_X": -82.341137, "stop_lat_Y": 36.309796, "last_edited_date": "2023-12-08T21:27:07Z" }, "geometry": { "type": "Point", "coordinates": [ -82.341140749706994, 36.309803051844803 ] } },
{ "type": "Feature", "properties": { "OBJECTID": 150, "Stop_Code": 1219, "Stop_Name": "Highland - Taylor Ridge", "Seating": null, "stop_lon_X": -82.338007, "stop_lat_Y": 36.311625, "last_edited_date": "2023-12-08T21:27:07Z" }, "geometry": { "type": "Point", "coordinates": [ -82.338010749139144, 36.311632052389356 ] } },
{ "type": "Feature", "properties": { "OBJECTID": 151, "Stop_Code": 1220, "Stop_Name": "Highland & E. Maple", "Seating": null, "stop_lon_X": -82.336025, "stop_lat_Y": 36.312767, "last_edited_date": "2023-12-08T21:27:07Z" }, "geometry": { "type": "Point", "coordinates": [ -82.336028747837872, 36.312774052636563 ] } },
{ "type": "Feature", "properties": { "OBJECTID": 153, "Stop_Code": 1222, "Stop_Name": "Milligan Hwy - Past Shell", "Seating": null, "stop_lon_X": -82.32968642, "stop_lat_Y": 36.30897709, "last_edited_date": "2023-12-08T21:27:07Z" }, "geometry": { "type": "Point", "coordinates": [ -82.329690165622125, 36.308984142105146 ] } },
{ "type": "Feature", "properties": { "OBJECTID": 154, "Stop_Code": 1223, "Stop_Name": "Swadley - Beaver Hollow Apts", "Seating": null, "stop_lon_X": -82.32507705, "stop_lat_Y": 36.30510666, "last_edited_date": "2023-12-08T21:27:07Z" }, "geometry": { "type": "Point", "coordinates": [ -82.325080794399582, 36.305113711100979 ] } },
{ "type": "Feature", "properties": { "OBJECTID": 155, "Stop_Code": 1224, "Stop_Name": "Swadley - Charleston Sq Apts", "Seating": null, "stop_lon_X": -82.327012, "stop_lat_Y": 36.302797, "last_edited_date": "2023-12-08T21:27:07Z" }, "geometry": { "type": "Point", "coordinates": [ -82.32701574457613, 36.302804050877626 ] } },
{ "type": "Feature", "properties": { "OBJECTID": 156, "Stop_Code": 1225, "Stop_Name": "Swadley - Lakewood Vlg", "Seating": "Bench", "stop_lon_X": -82.3279564, "stop_lat_Y": 36.30168014, "last_edited_date": "2023-12-08T21:27:07Z" }, "geometry": { "type": "Point", "coordinates": [ -82.327960145614128, 36.301687190434372 ] } },
{ "type": "Feature", "properties": { "OBJECTID": 157, "Stop_Code": 1226, "Stop_Name": "Swadley & Plymouth", "Seating": null, "stop_lon_X": -82.32888981000001, "stop_lat_Y": 36.30060725, "last_edited_date": "2023-12-08T21:27:07Z" }, "geometry": { "type": "Point", "coordinates": [ -82.328893555717045, 36.300614300155253 ] } },
{ "type": "Feature", "properties": { "OBJECTID": 158, "Stop_Code": 1227, "Stop_Name": "Plymouth - Blue Ridge Apts", "Seating": "Bench", "stop_lon_X": -82.328175, "stop_lat_Y": 36.29993938, "last_edited_date": "2023-12-08T21:27:07Z" }, "geometry": { "type": "Point", "coordinates": [ -82.328178744614846, 36.299946429979691 ] } },
{ "type": "Feature", "properties": { "OBJECTID": 159, "Stop_Code": 1228, "Stop_Name": "Plymouth - Pinecrest Vlg", "Seating": "Bench", "stop_lon_X": -82.324352, "stop_lat_Y": 36.297165, "last_edited_date": "2023-12-08T21:27:07Z" }, "geometry": { "type": "Point", "coordinates": [ -82.324355743874989, 36.297172049422755 ] } },
{ "type": "Feature", "properties": { "OBJECTID": 160, "Stop_Code": 1229, "Stop_Name": "Plymouth & York", "Seating": null, "stop_lon_X": -82.321307, "stop_lat_Y": 36.294176, "last_edited_date": "2023-12-08T21:27:07Z" }, "geometry": { "type": "Point", "coordinates": [ -82.321310743188931, 36.294183049093888 ] } },
{ "type": "Feature", "properties": { "OBJECTID": 161, "Stop_Code": 1230, "Stop_Name": "Plymouth & Old Lewis", "Seating": null, "stop_lon_X": -82.320185, "stop_lat_Y": 36.293012, "last_edited_date": "2023-12-08T21:27:07Z" }, "geometry": { "type": "Point", "coordinates": [ -82.320188742639502, 36.293019048897825 ] } },
{ "type": "Feature", "properties": { "OBJECTID": 162, "Stop_Code": 1231, "Stop_Name": "Mayflower & Amity", "Seating": null, "stop_lon_X": -82.321031, "stop_lat_Y": 36.291644, "last_edited_date": "2023-12-08T21:27:07Z" }, "geometry": { "type": "Point", "coordinates": [ -82.321034742113625, 36.291651048216366 ] } },
{ "type": "Feature", "properties": { "OBJECTID": 163, "Stop_Code": 1232, "Stop_Name": "Mayflower & Edwards - Bridge", "Seating": null, "stop_lon_X": -82.325256, "stop_lat_Y": 36.291592, "last_edited_date": "2023-12-08T21:27:07Z" }, "geometry": { "type": "Point", "coordinates": [ -82.325259743353755, 36.291599048604219 ] } },
{ "type": "Feature", "properties": { "OBJECTID": 164, "Stop_Code": 1233, "Stop_Name": "Mayflower & S. Roan", "Seating": null, "stop_lon_X": -82.327394, "stop_lat_Y": 36.290407, "last_edited_date": "2023-12-08T21:27:07Z" }, "geometry": { "type": "Point", "coordinates": [ -82.327397744301763, 36.290414048142573 ] } },
{ "type": "Feature", "properties": { "OBJECTID": 165, "Stop_Code": 1234, "Stop_Name": "S. Roan - Longview Place", "Seating": "Bench", "stop_lon_X": -82.329125, "stop_lat_Y": 36.292156, "last_edited_date": "2023-12-08T21:27:07Z" }, "geometry": { "type": "Point", "coordinates": [ -82.329128745363889, 36.292163048651794 ] } },
{ "type": "Feature", "properties": { "OBJECTID": 166, "Stop_Code": 1235, "Stop_Name": "S. Roan - Heritage Park", "Seating": "Bench", "stop_lon_X": -82.33065, "stop_lat_Y": 36.29378, "last_edited_date": "2023-12-08T21:27:07Z" }, "geometry": { "type": "Point", "coordinates": [ -82.330653745955487, 36.293787048553376 ] } },
{ "type": "Feature", "properties": { "OBJECTID": 167, "Stop_Code": 1236, "Stop_Name": "S. Roan & Bonita", "Seating": "Bench", "stop_lon_X": -82.332222, "stop_lat_Y": 36.296549, "last_edited_date": "2023-12-08T21:27:07Z" }, "geometry": { "type": "Point", "coordinates": [ -82.332225746120287, 36.296556049116319 ] } },
{ "type": "Feature", "properties": { "OBJECTID": 168, "Stop_Code": 1237, "Stop_Name": "S. Roan & Plymouth", "Seating": null, "stop_lon_X": -82.334214, "stop_lat_Y": 36.300406, "last_edited_date": "2023-12-08T21:27:07Z" }, "geometry": { "type": "Point", "coordinates": [ -82.334217747065509, 36.300413049482614 ] } },
{ "type": "Feature", "properties": { "OBJECTID": 169, "Stop_Code": 1238, "Stop_Name": "S. Roan & Quarry /Food City", "Seating": "Bench", "stop_lon_X": -82.33622, "stop_lat_Y": 36.303081, "last_edited_date": "2023-12-08T21:27:07Z" }, "geometry": { "type": "Point", "coordinates": [ -82.336223747963643, 36.303088050467792 ] } },
{ "type": "Feature", "properties": { "OBJECTID": 170, "Stop_Code": 1239, "Stop_Name": "S. Roan - Across from Price Less", "Seating": "Bench", "stop_lon_X": -82.340049, "stop_lat_Y": 36.305413, "last_edited_date": "2023-12-08T21:27:07Z" }, "geometry": { "type": "Point", "coordinates": [ -82.340052749203025, 36.305420050698935 ] } },
{ "type": "Feature", "properties": { "OBJECTID": 171, "Stop_Code": 1240, "Stop_Name": "Univ Pkwy - Grand Arms Apts", "Seating": null, "stop_lon_X": -82.344269, "stop_lat_Y": 36.306135, "last_edited_date": "2023-12-08T21:27:07Z" }, "geometry": { "type": "Point", "coordinates": [ -82.344272750515927, 36.306142050439441 ] } },
{ "type": "Feature", "properties": { "OBJECTID": 172, "Stop_Code": 1241, "Stop_Name": "Buffalo & Peach Blossom", "Seating": null, "stop_lon_X": -82.34675332, "stop_lat_Y": 36.30680316, "last_edited_date": "2023-12-08T21:27:07Z" }, "geometry": { "type": "Point", "coordinates": [ -82.346757070807598, 36.306810210281903 ] } },
{ "type": "Feature", "properties": { "OBJECTID": 173, "Stop_Code": 1242, "Stop_Name": "Buffalo & W. Poplar", "Seating": null, "stop_lon_X": -82.3490627, "stop_lat_Y": 36.31008752, "last_edited_date": "2023-12-08T21:27:07Z" }, "geometry": { "type": "Point", "coordinates": [ -82.349066451580455, 36.310094571534307 ] } },
{ "type": "Feature", "properties": { "OBJECTID": 174, "Stop_Code": 1243, "Stop_Name": "Buffalo & W. Pine", "Seating": null, "stop_lon_X": -82.35008999, "stop_lat_Y": 36.31187924, "last_edited_date": "2023-12-08T21:27:07Z" }, "geometry": { "type": "Point", "coordinates": [ -82.350093742589834, 36.311886291241073 ] } },
{ "type": "Feature", "properties": { "OBJECTID": 175, "Stop_Code": 1244, "Stop_Name": "Buffalo & W. Walnut", "Seating": null, "stop_lon_X": -82.35162958, "stop_lat_Y": 36.31353952, "last_edited_date": "2023-12-08T21:27:07Z" }, "geometry": { "type": "Point", "coordinates": [ -82.351633332583333, 36.313546571601648 ] } },
{ "type": "Feature", "properties": { "OBJECTID": 176, "Stop_Code": 1245, "Stop_Name": "Buffalo & E. Main", "Seating": null, "stop_lon_X": -82.35294118, "stop_lat_Y": 36.31581672, "last_edited_date": "2023-12-08T21:27:07Z" }, "geometry": { "type": "Point", "coordinates": [ -82.352944933193456, 36.315823772625045 ] } },
{ "type": "Feature", "properties": { "OBJECTID": 177, "Stop_Code": 1246, "Stop_Name": "Westgate Vlg Office", "Seating": "Bench", "stop_lon_X": -82.38664, "stop_lat_Y": 36.314928, "last_edited_date": "2023-12-08T21:27:07Z" }, "geometry": { "type": "Point", "coordinates": [ -82.386643762981322, 36.314935050762195 ] } },
{ "type": "Feature", "properties": { "OBJECTID": 178, "Stop_Code": 1247, "Stop_Name": "Clark Manor - Playground", "Seating": "Bench", "stop_lon_X": -82.38539725, "stop_lat_Y": 36.31490879, "last_edited_date": "2023-12-08T21:27:07Z" }, "geometry": { "type": "Point", "coordinates": [ -82.385401012727343, 36.314915841226401 ] } },
{ "type": "Feature", "properties": { "OBJECTID": 179, "Stop_Code": 1248, "Stop_Name": "Clark Manor - Big Rock", "Seating": null, "stop_lon_X": -82.38442897, "stop_lat_Y": 36.31523334, "last_edited_date": "2023-12-08T21:27:07Z" }, "geometry": { "type": "Point", "coordinates": [ -82.384432732448971, 36.315240390563154 ] } },
{ "type": "Feature", "properties": { "OBJECTID": 180, "Stop_Code": 1249, "Stop_Name": "Nathaniel & Indian Ridge", "Seating": null, "stop_lon_X": -82.383508, "stop_lat_Y": 36.316141, "last_edited_date": "2023-12-08T21:27:07Z" }, "geometry": { "type": "Point", "coordinates": [ -82.383511762217182, 36.3161480511693 ] } },
{ "type": "Feature", "properties": { "OBJECTID": 181, "Stop_Code": 1250, "Stop_Name": "Indian Ridge - Mkt St Ctr Ent", "Seating": null, "stop_lon_X": -82.380093, "stop_lat_Y": 36.314491, "last_edited_date": "2023-12-08T21:27:07Z" }, "geometry": { "type": "Point", "coordinates": [ -82.38009676116917, 36.314498050906884 ] } },
{ "type": "Feature", "properties": { "OBJECTID": 182, "Stop_Code": 1251, "Stop_Name": "W. Main & Winter", "Seating": null, "stop_lon_X": -82.3621, "stop_lat_Y": 36.316301, "last_edited_date": "2023-12-08T21:27:07Z" }, "geometry": { "type": "Point", "coordinates": [ -82.362103756083926, 36.316308052112468 ] } },
{ "type": "Feature", "properties": { "OBJECTID": 186, "Stop_Code": 1304, "Stop_Name": "Broyles across from fire station", "Seating": null, "stop_lon_X": -82.37233757, "stop_lat_Y": 36.34421193, "last_edited_date": "2023-12-08T21:27:07Z" }, "geometry": { "type": "Point", "coordinates": [ -82.372341331288951, 36.344218987616117 ] } },
{ "type": "Feature", "properties": { "OBJECTID": 187, "Stop_Code": 1305, "Stop_Name": "Bristol Hwy & High Point", "Seating": null, "stop_lon_X": -82.38406285000001, "stop_lat_Y": 36.35815137, "last_edited_date": "2023-12-08T21:27:07Z" }, "geometry": { "type": "Point", "coordinates": [ -82.384066615557103, 36.358158429439428 ] } },
{ "type": "Feature", "properties": { "OBJECTID": 188, "Stop_Code": 1306, "Stop_Name": "Bristol Hwy - Food Lion Ctr", "Seating": "Bench", "stop_lon_X": -82.38269626, "stop_lat_Y": 36.36298471, "last_edited_date": "2023-12-08T21:27:07Z" }, "geometry": { "type": "Point", "coordinates": [ -82.382700025254763, 36.362991770685547 ] } },
{ "type": "Feature", "properties": { "OBJECTID": 189, "Stop_Code": 1307, "Stop_Name": "Bristol Hwy - Big Valley Park", "Seating": "Shelter", "stop_lon_X": -82.37512439, "stop_lat_Y": 36.37143769, "last_edited_date": "2023-12-08T21:27:07Z" }, "geometry": { "type": "Point", "coordinates": [ -82.375128153714172, 36.371444752943908 ] } },
{ "type": "Feature", "properties": { "OBJECTID": 190, "Stop_Code": 1308, "Stop_Name": "Meridale & E. Mtn View", "Seating": "Bench", "stop_lon_X": -82.37261384, "stop_lat_Y": 36.37637966, "last_edited_date": "2023-12-08T21:27:07Z" }, "geometry": { "type": "Point", "coordinates": [ -82.372617602745933, 36.376386723980914 ] } },
{ "type": "Feature", "properties": { "OBJECTID": 191, "Stop_Code": 1309, "Stop_Name": "E. Mtn View & Timberlake", "Seating": "Bench", "stop_lon_X": -82.38023131, "stop_lat_Y": 36.37070545, "last_edited_date": "2023-12-08T21:27:07Z" }, "geometry": { "type": "Point", "coordinates": [ -82.380235074749919, 36.370712512963891 ] } },
{ "type": "Feature", "properties": { "OBJECTID": 192, "Stop_Code": 1310, "Stop_Name": "Timberlake & Bristol Hwy", "Seating": null, "stop_lon_X": -82.377253, "stop_lat_Y": 36.369574, "last_edited_date": "2023-12-08T21:27:07Z" }, "geometry": { "type": "Point", "coordinates": [ -82.377256763946932, 36.36958106265557 ] } },
{ "type": "Feature", "properties": { "OBJECTID": 194, "Stop_Code": 1312, "Stop_Name": "Bristol Hwy - Papa John's", "Seating": null, "stop_lon_X": -82.382866, "stop_lat_Y": 36.36307, "last_edited_date": "2023-12-08T21:27:07Z" }, "geometry": { "type": "Point", "coordinates": [ -82.382869765194414, 36.363077060666853 ] } },
{ "type": "Feature", "properties": { "OBJECTID": 195, "Stop_Code": 1313, "Stop_Name": "W. Oakland - Big Lots", "Seating": "Shelter", "stop_lon_X": -82.385741, "stop_lat_Y": 36.359991, "last_edited_date": "2023-12-08T21:27:07Z" }, "geometry": { "type": "Point", "coordinates": [ -82.385744766328031, 36.359998059682859 ] } },
{ "type": "Feature", "properties": { "OBJECTID": 196, "Stop_Code": 1314, "Stop_Name": "W. Oakland - Goodwill/Mellow Mushroom", "Seating": null, "stop_lon_X": -82.388215, "stop_lat_Y": 36.359453, "last_edited_date": "2023-12-08T21:27:07Z" }, "geometry": { "type": "Point", "coordinates": [ -82.388218766191088, 36.359460059863075 ] } },
{ "type": "Feature", "properties": { "OBJECTID": 197, "Stop_Code": 1315, "Stop_Name": "W. Oakland & Vernon", "Seating": null, "stop_lon_X": -82.390946, "stop_lat_Y": 36.358323, "last_edited_date": "2023-12-08T21:27:07Z" }, "geometry": { "type": "Point", "coordinates": [ -82.390949767181411, 36.358330059143277 ] } },
{ "type": "Feature", "properties": { "OBJECTID": 198, "Stop_Code": 1316, "Stop_Name": "W. Oakland - Classic Carwash", "Seating": null, "stop_lon_X": -82.3927237, "stop_lat_Y": 36.35750227, "last_edited_date": "2023-12-08T21:27:07Z" }, "geometry": { "type": "Point", "coordinates": [ -82.392727468261867, 36.357509329304705 ] } },
{ "type": "Feature", "properties": { "OBJECTID": 199, "Stop_Code": 1317, "Stop_Name": "Browns Mill - Comfort Suites", "Seating": null, "stop_lon_X": -82.39689051000001, "stop_lat_Y": 36.35979824, "last_edited_date": "2023-12-08T21:27:07Z" }, "geometry": { "type": "Point", "coordinates": [ -82.396894278819843, 36.359805299671116 ] } },
{ "type": "Feature", "properties": { "OBJECTID": 200, "Stop_Code": 1318, "Stop_Name": "Walmart - Garden Ctr", "Seating": "Shelter", "stop_lon_X": -82.397641, "stop_lat_Y": 36.359768, "last_edited_date": "2023-12-08T21:27:07Z" }, "geometry": { "type": "Point", "coordinates": [ -82.39764476932065, 36.359775059809913 ] } },
{ "type": "Feature", "properties": { "OBJECTID": 201, "Stop_Code": 1319, "Stop_Name": "Browns Mill - Shoppes at Franklin", "Seating": null, "stop_lon_X": -82.39488288, "stop_lat_Y": 36.35825463, "last_edited_date": "2023-12-08T21:27:07Z" }, "geometry": { "type": "Point", "coordinates": [ -82.394886648896403, 36.35826168951882 ] } },
{ "type": "Feature", "properties": { "OBJECTID": 202, "Stop_Code": 1320, "Stop_Name": "W. Oakland - Cheddars/Sam's/B&N", "Seating": "Bench", "stop_lon_X": -82.401162, "stop_lat_Y": 36.351573, "last_edited_date": "2023-12-08T21:27:07Z" }, "geometry": { "type": "Point", "coordinates": [ -82.401165770043576, 36.351580057775166 ] } },
{ "type": "Feature", "properties": { "OBJECTID": 203, "Stop_Code": 1321, "Stop_Name": "Mktplace - 1st Assist", "Seating": "Bench", "stop_lon_X": -82.404094, "stop_lat_Y": 36.348456, "last_edited_date": "2023-12-08T21:27:07Z" }, "geometry": { "type": "Point", "coordinates": [ -82.404097770950585, 36.348463056704333 ] } },
{ "type": "Feature", "properties": { "OBJECTID": 204, "Stop_Code": 1322, "Stop_Name": "Mktplace - Lowes & Kohls", "Seating": "Bench", "stop_lon_X": -82.406417, "stop_lat_Y": 36.342774, "last_edited_date": "2023-12-08T21:27:07Z" }, "geometry": { "type": "Point", "coordinates": [ -82.406420770538446, 36.342781055399101 ] } },
{ "type": "Feature", "properties": { "OBJECTID": 205, "Stop_Code": 1323, "Stop_Name": "Knob Crk - Fuddruckers", "Seating": null, "stop_lon_X": -82.40614, "stop_lat_Y": 36.341837, "last_edited_date": "2023-12-08T21:27:07Z" }, "geometry": { "type": "Point", "coordinates": [ -82.406143770868027, 36.341844055837925 ] } },
{ "type": "Feature", "properties": { "OBJECTID": 206, "Stop_Code": 1324, "Stop_Name": "Johnson City Crossing - Natural Foods/Old Navy", "Seating": "Bench", "stop_lon_X": -82.402554, "stop_lat_Y": 36.343308, "last_edited_date": "2023-12-08T21:27:07Z" }, "geometry": { "type": "Point", "coordinates": [ -82.402557769984696, 36.343315055571686 ] } },
{ "type": "Feature", "properties": { "OBJECTID": 207, "Stop_Code": 1325, "Stop_Name": "Peoples - Bed, Bath & Beyond", "Seating": "Bench", "stop_lon_X": -82.402243, "stop_lat_Y": 36.344824, "last_edited_date": "2023-12-08T21:27:07Z" }, "geometry": { "type": "Point", "coordinates": [ -82.402246770101911, 36.344831055938883 ] } },
{ "type": "Feature", "properties": { "OBJECTID": 208, "Stop_Code": 1326, "Stop_Name": "Peoples - Michaels/Home Depot", "Seating": "Bench", "stop_lon_X": -82.401231, "stop_lat_Y": 36.346655, "last_edited_date": "2023-12-08T21:27:07Z" }, "geometry": { "type": "Point", "coordinates": [ -82.40123476965644, 36.346662056629889 ] } },
{ "type": "Feature", "properties": { "OBJECTID": 209, "Stop_Code": 1327, "Stop_Name": "Peoples - Wendy's", "Seating": "Bench", "stop_lon_X": -82.399308, "stop_lat_Y": 36.349607, "last_edited_date": "2023-12-08T21:27:07Z" }, "geometry": { "type": "Point", "coordinates": [ -82.399311769575036, 36.349614057678686 ] } },
{ "type": "Feature", "properties": { "OBJECTID": 210, "Stop_Code": 1328, "Stop_Name": "Peoples & Greenline", "Seating": null, "stop_lon_X": -82.397952, "stop_lat_Y": 36.351426, "last_edited_date": "2023-12-08T21:27:07Z" }, "geometry": { "type": "Point", "coordinates": [ -82.397955768790865, 36.351433057536923 ] } },
{ "type": "Feature", "properties": { "OBJECTID": 211, "Stop_Code": 1329, "Stop_Name": "Peoples Street- across from Chuck E. Cheese", "Seating": null, "stop_lon_X": -82.39716812, "stop_lat_Y": 36.35290765, "last_edited_date": "2023-12-08T21:27:07Z" }, "geometry": { "type": "Point", "coordinates": [ -82.397171888340921, 36.352914707827097 ] } },
{ "type": "Feature", "properties": { "OBJECTID": 212, "Stop_Code": 1330, "Stop_Name": "Springbrook - Holiday Inn", "Seating": null, "stop_lon_X": -82.383233, "stop_lat_Y": 36.34977, "last_edited_date": "2023-12-08T21:27:07Z" }, "geometry": { "type": "Point", "coordinates": [ -82.383236764743856, 36.349777058433958 ] } },
{ "type": "Feature", "properties": { "OBJECTID": 213, "Stop_Code": 1331, "Stop_Name": "Springbrook & N. Roan", "Seating": "Bench", "stop_lon_X": -82.380949, "stop_lat_Y": 36.350322, "last_edited_date": "2023-12-08T21:27:07Z" }, "geometry": { "type": "Point", "coordinates": [ -82.380952763764682, 36.350329058262268 ] } },
{ "type": "Feature", "properties": { "OBJECTID": 216, "Stop_Code": 2001, "Stop_Name": "Student Quarters- Lower Level", "Seating": null, "stop_lon_X": -82.37267955, "stop_lat_Y": 36.29600056, "last_edited_date": "2023-12-08T21:27:07Z" }, "geometry": { "type": "Point", "coordinates": [ -82.372683308148396, 36.296007607782634 ] } },
{ "type": "Feature", "properties": { "OBJECTID": 217, "Stop_Code": 2003, "Stop_Name": "Bell & Seehorn", "Seating": null, "stop_lon_X": -82.36945286, "stop_lat_Y": 36.29980259, "last_edited_date": "2023-12-08T21:27:07Z" }, "geometry": { "type": "Point", "coordinates": [ -82.369456617110458, 36.299809638754439 ] } },
{ "type": "Feature", "properties": { "OBJECTID": 218, "Stop_Code": 2004, "Stop_Name": "Powell Hall", "Seating": null, "stop_lon_X": -82.36998796, "stop_lat_Y": 36.30055227, "last_edited_date": "2023-12-08T21:27:07Z" }, "geometry": { "type": "Point", "coordinates": [ -82.369991717222916, 36.300559318349116 ] } },
{ "type": "Feature", "properties": { "OBJECTID": 219, "Stop_Code": 2005, "Stop_Name": "Bell & Ross", "Seating": null, "stop_lon_X": -82.37053379, "stop_lat_Y": 36.30145081, "last_edited_date": "2023-12-08T21:27:07Z" }, "geometry": { "type": "Point", "coordinates": [ -82.370537548257076, 36.301457858801882 ] } },
{ "type": "Feature", "properties": { "OBJECTID": 220, "Stop_Code": 2006, "Stop_Name": "Warf-Pickel Hall", "Seating": null, "stop_lon_X": -82.37189098, "stop_lat_Y": 36.30170159, "last_edited_date": "2023-12-08T21:27:07Z" }, "geometry": { "type": "Point", "coordinates": [ -82.37189473781487, 36.301708638199813 ] } },
{ "type": "Feature", "properties": { "OBJECTID": 222, "Stop_Code": 2008, "Stop_Name": "CPA", "Seating": null, "stop_lon_X": -82.373407, "stop_lat_Y": 36.300663, "last_edited_date": "2023-12-08T21:27:07Z" }, "geometry": { "type": "Point", "coordinates": [ -82.373410758531051, 36.300670047943612 ] } },
{ "type": "Feature", "properties": { "OBJECTID": 223, "Stop_Code": 2009, "Stop_Name": "Luntsford Apts/Lucille Clement", "Seating": null, "stop_lon_X": -82.37235098, "stop_lat_Y": 36.29938551, "last_edited_date": "2023-12-08T21:27:07Z" }, "geometry": { "type": "Point", "coordinates": [ -82.37235473787986, 36.299392558162765 ] } },
{ "type": "Feature", "properties": { "OBJECTID": 224, "Stop_Code": 2010, "Stop_Name": "Ross Hall", "Seating": null, "stop_lon_X": -82.36998125, "stop_lat_Y": 36.30043559, "last_edited_date": "2023-12-08T21:27:07Z" }, "geometry": { "type": "Point", "coordinates": [ -82.369985006965038, 36.300442638798593 ] } },
{ "type": "Feature", "properties": { "OBJECTID": 225, "Stop_Code": 2011, "Stop_Name": "Seminole - Upper Class", "Seating": null, "stop_lon_X": -82.36864953, "stop_lat_Y": 36.29885309, "last_edited_date": "2023-12-08T21:27:07Z" }, "geometry": { "type": "Point", "coordinates": [ -82.368653287443934, 36.298860138594613 ] } },
{ "type": "Feature", "properties": { "OBJECTID": 226, "Stop_Code": 3004, "Stop_Name": "Culp Center", "Seating": null, "stop_lon_X": -82.3664984, "stop_lat_Y": 36.30136229, "last_edited_date": "2023-12-08T21:27:07Z" }, "geometry": { "type": "Point", "coordinates": [ -82.366502156077757, 36.301369338880939 ] } },
{ "type": "Feature", "properties": { "OBJECTID": 227, "Stop_Code": 3006, "Stop_Name": "Rogers-Stout Hall", "Seating": null, "stop_lon_X": -82.36572593, "stop_lat_Y": 36.3036985, "last_edited_date": "2023-12-08T21:27:07Z" }, "geometry": { "type": "Point", "coordinates": [ -82.365729686672523, 36.303705549560327 ] } },
{ "type": "Feature", "properties": { "OBJECTID": 228, "Stop_Code": 3007, "Stop_Name": "Gilbreath & Maple - Burgin Dossett Hall", "Seating": null, "stop_lon_X": -82.36629455000001, "stop_lat_Y": 36.30453669, "last_edited_date": "2023-12-08T21:27:07Z" }, "geometry": { "type": "Point", "coordinates": [ -82.366298306700514, 36.304543739849159 ] } },
{ "type": "Feature", "properties": { "OBJECTID": 229, "Stop_Code": 3009, "Stop_Name": "Walnut St. Parking Lot", "Seating": null, "stop_lon_X": -82.36534908, "stop_lat_Y": 36.30695872, "last_edited_date": "2023-12-08T21:27:07Z" }, "geometry": { "type": "Point", "coordinates": [ -82.365352836836237, 36.306965770369018 ] } },
{ "type": "Feature", "properties": { "OBJECTID": 231, "Stop_Code": 3015, "Stop_Name": "Lot 22a S. Bus Shelter", "Seating": "Shelter", "stop_lon_X": -82.37860724, "stop_lat_Y": 36.29925274, "last_edited_date": "2023-12-08T21:27:07Z" }, "geometry": { "type": "Point", "coordinates": [ -82.37861099945475, 36.299259787747303 ] } },
{ "type": "Feature", "properties": { "OBJECTID": 232, "Stop_Code": 3016, "Stop_Name": "Lot 22a Center Shelter", "Seating": "Shelter", "stop_lon_X": -82.37705155, "stop_lat_Y": 36.30021565, "last_edited_date": "2023-12-08T21:27:07Z" }, "geometry": { "type": "Point", "coordinates": [ -82.377055309704247, 36.300222697861273 ] } },
{ "type": "Feature", "properties": { "OBJECTID": 233, "Stop_Code": 3017, "Stop_Name": "Lot 22a N. Bus Shelter", "Seating": "Shelter", "stop_lon_X": -82.375256, "stop_lat_Y": 36.301492, "last_edited_date": "2023-12-08T21:27:07Z" }, "geometry": { "type": "Point", "coordinates": [ -82.375259759035757, 36.301499048163507 ] } },
{ "type": "Feature", "properties": { "OBJECTID": 234, "Stop_Code": 3029, "Stop_Name": "Buc Ridge Shelter", "Seating": "Shelter", "stop_lon_X": -82.3598881, "stop_lat_Y": 36.29873507, "last_edited_date": "2023-12-08T21:27:07Z" }, "geometry": { "type": "Point", "coordinates": [ -82.359891854816368, 36.298742118165571 ] } },
{ "type": "Feature", "properties": { "OBJECTID": 235, "Stop_Code": 3030, "Stop_Name": "Buc Ridge Phase 3", "Seating": null, "stop_lon_X": -82.36070483, "stop_lat_Y": 36.30115308, "last_edited_date": "2023-12-08T21:27:07Z" }, "geometry": { "type": "Point", "coordinates": [ -82.360708585074235, 36.301160128976541 ] } },
{ "type": "Feature", "properties": { "OBJECTID": 236, "Stop_Code": 3031, "Stop_Name": "Buc Ridge Stop Sign", "Seating": null, "stop_lon_X": -82.35910087000001, "stop_lat_Y": 36.2995974, "last_edited_date": "2023-12-08T21:27:07Z" }, "geometry": { "type": "Point", "coordinates": [ -82.359104623892392, 36.299604449038696 ] } },
{ "type": "Feature", "properties": { "OBJECTID": 237, "Stop_Code": 3032, "Stop_Name": "Treasure Lane and Southwest", "Seating": null, "stop_lon_X": -82.36376389, "stop_lat_Y": 36.30088486, "last_edited_date": "2023-12-08T21:27:07Z" }, "geometry": { "type": "Point", "coordinates": [ -82.363767645384186, 36.300891908762011 ] } },
{ "type": "Feature", "properties": { "OBJECTID": 238, "Stop_Code": 3034, "Stop_Name": "Southwest & Seehorn", "Seating": null, "stop_lon_X": -82.36463829, "stop_lat_Y": 36.30235739, "last_edited_date": "2023-12-08T21:27:07Z" }, "geometry": { "type": "Point", "coordinates": [ -82.364642046279243, 36.302364439034363 ] } },
{ "type": "Feature", "properties": { "OBJECTID": 239, "Stop_Code": 3035, "Stop_Name": "Dossett Hall", "Seating": null, "stop_lon_X": -82.37131431, "stop_lat_Y": 36.29980527, "last_edited_date": "2023-12-08T21:27:07Z" }, "geometry": { "type": "Point", "coordinates": [ -82.371318067889973, 36.29981231802752 ] } },
{ "type": "Feature", "properties": { "OBJECTID": 240, "Stop_Code": 3036, "Stop_Name": "Buc Ridge Phase 4", "Seating": null, "stop_lon_X": -82.3606418, "stop_lat_Y": 36.30108469, "last_edited_date": "2023-12-08T21:27:07Z" }, "geometry": { "type": "Point", "coordinates": [ -82.360645554447046, 36.301091739051706 ] } },
{ "type": "Feature", "properties": { "OBJECTID": 241, "Stop_Code": 3038, "Stop_Name": "Seehorn & Bell", "Seating": null, "stop_lon_X": -82.36952796, "stop_lat_Y": 36.29996084, "last_edited_date": "2023-12-08T21:27:07Z" }, "geometry": { "type": "Point", "coordinates": [ -82.369531717753333, 36.299967888227521 ] } },
{ "type": "Feature", "properties": { "OBJECTID": 242, "Stop_Code": 4001, "Stop_Name": "Univ School", "Seating": null, "stop_lon_X": -82.36775502, "stop_lat_Y": 36.30454742, "last_edited_date": "2023-12-08T21:27:07Z" }, "geometry": { "type": "Point", "coordinates": [ -82.367758777414693, 36.304554469729325 ] } },
{ "type": "Feature", "properties": { "OBJECTID": 243, "Stop_Code": 4002, "Stop_Name": "Gilbreath Hall", "Seating": null, "stop_lon_X": -82.368224, "stop_lat_Y": 36.303509, "last_edited_date": "2023-12-08T21:27:07Z" }, "geometry": { "type": "Point", "coordinates": [ -82.368227757473164, 36.303516049591082 ] } },
{ "type": "Feature", "properties": { "OBJECTID": 244, "Stop_Code": 4003, "Stop_Name": "Reece Museum", "Seating": null, "stop_lon_X": -82.3671475, "stop_lat_Y": 36.30314328, "last_edited_date": "2023-12-08T21:27:07Z" }, "geometry": { "type": "Point", "coordinates": [ -82.367151256292843, 36.303150329212208 ] } },
{ "type": "Feature", "properties": { "OBJECTID": 245, "Stop_Code": 4004, "Stop_Name": "Rogers-Stout Hall", "Seating": null, "stop_lon_X": -82.36579298, "stop_lat_Y": 36.30374275, "last_edited_date": "2023-12-08T21:27:07Z" }, "geometry": { "type": "Point", "coordinates": [ -82.365796736276636, 36.303749799215801 ] } },
{ "type": "Feature", "properties": { "OBJECTID": 246, "Stop_Code": 5003, "Stop_Name": "Culp Center", "Seating": null, "stop_lon_X": -82.36654802, "stop_lat_Y": 36.30137034, "last_edited_date": "2023-12-08T21:27:07Z" }, "geometry": { "type": "Point", "coordinates": [ -82.366551776759323, 36.301377388828044 ] } },
{ "type": "Feature", "properties": { "OBJECTID": 249, "Stop_Code": 5006, "Stop_Name": "Governors/Centennial Hall", "Seating": null, "stop_lon_X": -82.36527666000001, "stop_lat_Y": 36.30320363, "last_edited_date": "2023-12-08T21:27:07Z" }, "geometry": { "type": "Point", "coordinates": [ -82.365280416750366, 36.303210678928444 ] } },
{ "type": "Feature", "properties": { "OBJECTID": 256, "Stop_Code": 7001, "Stop_Name": "N. Boone & W. Unaka", "Seating": null, "stop_lon_X": -82.35854, "stop_lat_Y": 36.320797, "last_edited_date": "2023-12-08T21:27:07Z" }, "geometry": { "type": "Point", "coordinates": [ -82.358543755706407, 36.320804053307896 ] } },
{ "type": "Feature", "properties": { "OBJECTID": 257, "Stop_Code": 7002, "Stop_Name": "N. Boone & W. Chilhowie - Mother Goose", "Seating": null, "stop_lon_X": -82.360452, "stop_lat_Y": 36.322039, "last_edited_date": "2023-12-08T21:27:07Z" }, "geometry": { "type": "Point", "coordinates": [ -82.360455756295877, 36.322046053331015 ] } },
{ "type": "Feature", "properties": { "OBJECTID": 258, "Stop_Code": 7003, "Stop_Name": "W. Chilhowie & Montgomery", "Seating": null, "stop_lon_X": -82.361908, "stop_lat_Y": 36.321359, "last_edited_date": "2023-12-08T21:27:07Z" }, "geometry": { "type": "Point", "coordinates": [ -82.361911755999316, 36.321366053291108 ] } },
{ "type": "Feature", "properties": { "OBJECTID": 259, "Stop_Code": 7004, "Stop_Name": "Montgomery & W. 8th", "Seating": null, "stop_lon_X": -82.362714, "stop_lat_Y": 36.3219, "last_edited_date": "2023-12-08T21:27:07Z" }, "geometry": { "type": "Point", "coordinates": [ -82.362717756352993, 36.32190705282671 ] } },
{ "type": "Feature", "properties": { "OBJECTID": 260, "Stop_Code": 7005, "Stop_Name": "Montgomery & W. 10th", "Seating": null, "stop_lon_X": -82.364593, "stop_lat_Y": 36.323277, "last_edited_date": "2023-12-08T21:27:07Z" }, "geometry": { "type": "Point", "coordinates": [ -82.364596756847376, 36.323284053505063 ] } },
{ "type": "Feature", "properties": { "OBJECTID": 261, "Stop_Code": 7006, "Stop_Name": "Moorland & John Exum", "Seating": null, "stop_lon_X": -82.368314, "stop_lat_Y": 36.321335, "last_edited_date": "2023-12-08T21:27:07Z" }, "geometry": { "type": "Point", "coordinates": [ -82.368317758815891, 36.321342052567132 ] } },
{ "type": "Feature", "properties": { "OBJECTID": 262, "Stop_Code": 7007, "Stop_Name": "Moorland & Fall", "Seating": null, "stop_lon_X": -82.36916, "stop_lat_Y": 36.320565, "last_edited_date": "2023-12-08T21:27:07Z" }, "geometry": { "type": "Point", "coordinates": [ -82.369163758349245, 36.320572052300633 ] } },
{ "type": "Feature", "properties": { "OBJECTID": 263, "Stop_Code": 7008, "Stop_Name": "Moorland & E. Hillcrest", "Seating": null, "stop_lon_X": -82.370162, "stop_lat_Y": 36.318832, "last_edited_date": "2023-12-08T21:27:07Z" }, "geometry": { "type": "Point", "coordinates": [ -82.370165758633263, 36.318839052533505 ] } },
{ "type": "Feature", "properties": { "OBJECTID": 264, "Stop_Code": 7009, "Stop_Name": "E. Hillcrest & Peachtree", "Seating": null, "stop_lon_X": -82.37272113, "stop_lat_Y": 36.3210591, "last_edited_date": "2023-12-08T21:27:07Z" }, "geometry": { "type": "Point", "coordinates": [ -82.372724889569625, 36.321066152678952 ] } },
{ "type": "Feature", "properties": { "OBJECTID": 265, "Stop_Code": 7010, "Stop_Name": "Peachtree & Pactolas", "Seating": null, "stop_lon_X": -82.373825, "stop_lat_Y": 36.320482, "last_edited_date": "2023-12-08T21:27:07Z" }, "geometry": { "type": "Point", "coordinates": [ -82.373828760150531, 36.320489052548815 ] } },
{ "type": "Feature", "properties": { "OBJECTID": 266, "Stop_Code": 7011, "Stop_Name": "Pactolas - Freedom Hall", "Seating": null, "stop_lon_X": -82.37590759, "stop_lat_Y": 36.32235058, "last_edited_date": "2023-12-08T21:27:07Z" }, "geometry": { "type": "Point", "coordinates": [ -82.375911351104833, 36.322357632351448 ] } },
{ "type": "Feature", "properties": { "OBJECTID": 267, "Stop_Code": 7012, "Stop_Name": "Pactolas & Mullins", "Seating": null, "stop_lon_X": -82.380263, "stop_lat_Y": 36.323592, "last_edited_date": "2023-12-08T21:27:07Z" }, "geometry": { "type": "Point", "coordinates": [ -82.380266761472285, 36.323599052865262 ] } },
{ "type": "Feature", "properties": { "OBJECTID": 268, "Stop_Code": 7013, "Stop_Name": "Pactolas & Knob Crk", "Seating": null, "stop_lon_X": -82.381634, "stop_lat_Y": 36.323494, "last_edited_date": "2023-12-08T21:27:07Z" }, "geometry": { "type": "Point", "coordinates": [ -82.381637762409838, 36.323501052346195 ] } },
{ "type": "Feature", "properties": { "OBJECTID": 269, "Stop_Code": 7014, "Stop_Name": "Knob Crk & Guaranda", "Seating": null, "stop_lon_X": -82.385034, "stop_lat_Y": 36.32583, "last_edited_date": "2023-12-08T21:27:07Z" }, "geometry": { "type": "Point", "coordinates": [ -82.385037763579618, 36.325837053272934 ] } },
{ "type": "Feature", "properties": { "OBJECTID": 270, "Stop_Code": 7015, "Stop_Name": "Knob Crk & North Hills", "Seating": null, "stop_lon_X": -82.386386, "stop_lat_Y": 36.328303, "last_edited_date": "2023-12-08T21:27:07Z" }, "geometry": { "type": "Point", "coordinates": [ -82.386389763645653, 36.328310053735812 ] } },
{ "type": "Feature", "properties": { "OBJECTID": 271, "Stop_Code": 7016, "Stop_Name": "Knob Crk - Xanadu/Arms Apts", "Seating": "Bench", "stop_lon_X": -82.388138, "stop_lat_Y": 36.331208, "last_edited_date": "2023-12-08T21:27:07Z" }, "geometry": { "type": "Point", "coordinates": [ -82.388141764954142, 36.331215054186934 ] } },
{ "type": "Feature", "properties": { "OBJECTID": 272, "Stop_Code": 7017, "Stop_Name": "Sunset- Landmark Village Shopping Center", "Seating": null, "stop_lon_X": -82.38935753, "stop_lat_Y": 36.33344688, "last_edited_date": "2023-12-08T21:27:07Z" }, "geometry": { "type": "Point", "coordinates": [ -82.38936129501316, 36.333453934821797 ] } },
{ "type": "Feature", "properties": { "OBJECTID": 273, "Stop_Code": 7019, "Stop_Name": "Sunset - Covenant Pres. Church", "Seating": null, "stop_lon_X": -82.38397702, "stop_lat_Y": 36.33732401, "last_edited_date": "2023-12-08T21:27:07Z" }, "geometry": { "type": "Point", "coordinates": [ -82.383980784227631, 36.337331065465293 ] } },
{ "type": "Feature", "properties": { "OBJECTID": 274, "Stop_Code": 7026, "Stop_Name": "Browns Mill - Kroger", "Seating": "Shelter", "stop_lon_X": -82.37829074, "stop_lat_Y": 36.34471082, "last_edited_date": "2023-12-08T21:27:07Z" }, "geometry": { "type": "Point", "coordinates": [ -82.378294502802788, 36.344717876830316 ] } },
{ "type": "Feature", "properties": { "OBJECTID": 275, "Stop_Code": 7027, "Stop_Name": "N. Roan - Sears Auto Ctr", "Seating": "Bench", "stop_lon_X": -82.37490176, "stop_lat_Y": 36.33999013, "last_edited_date": "2023-12-08T21:27:07Z" }, "geometry": { "type": "Point", "coordinates": [ -82.374905521055538, 36.339997186523966 ] } },
{ "type": "Feature", "properties": { "OBJECTID": 278, "Stop_Code": 7030, "Stop_Name": "N. Roan & Hemlock", "Seating": null, "stop_lon_X": -82.371917, "stop_lat_Y": 36.333916, "last_edited_date": "2023-12-08T21:27:07Z" }, "geometry": { "type": "Point", "coordinates": [ -82.371920760094056, 36.33392305487348 ] } },
{ "type": "Feature", "properties": { "OBJECTID": 279, "Stop_Code": 7031, "Stop_Name": "N. Roan - Heritage House", "Seating": null, "stop_lon_X": -82.368113, "stop_lat_Y": 36.328707, "last_edited_date": "2023-12-08T21:27:07Z" }, "geometry": { "type": "Point", "coordinates": [ -82.368116759105504, 36.328714054822505 ] } },
{ "type": "Feature", "properties": { "OBJECTID": 280, "Stop_Code": 7032, "Stop_Name": "N. Roan & W. 11th", "Seating": null, "stop_lon_X": -82.363448, "stop_lat_Y": 36.32611, "last_edited_date": "2023-12-08T21:27:07Z" }, "geometry": { "type": "Point", "coordinates": [ -82.363451756995318, 36.326117053851348 ] } },
{ "type": "Feature", "properties": { "OBJECTID": 281, "Stop_Code": 7033, "Stop_Name": "N. Roan - between 8th and 9th", "Seating": "Shelter", "stop_lon_X": -82.361131, "stop_lat_Y": 36.324494, "last_edited_date": "2023-12-08T21:27:07Z" }, "geometry": { "type": "Point", "coordinates": [ -82.361134756399835, 36.324501053765786 ] } },
{ "type": "Feature", "properties": { "OBJECTID": 282, "Stop_Code": 7034, "Stop_Name": "N. Roan & W. Chilhowie", "Seating": null, "stop_lon_X": -82.359611, "stop_lat_Y": 36.323474, "last_edited_date": "2023-12-08T21:27:07Z" }, "geometry": { "type": "Point", "coordinates": [ -82.359614756016484, 36.32348105352024 ] } },
{ "type": "Feature", "properties": { "OBJECTID": 283, "Stop_Code": 7035, "Stop_Name": "N. Roan & W. Unaka", "Seating": null, "stop_lon_X": -82.357529, "stop_lat_Y": 36.322086, "last_edited_date": "2023-12-08T21:27:07Z" }, "geometry": { "type": "Point", "coordinates": [ -82.35753275498223, 36.322093053346663 ] } },
{ "type": "Feature", "properties": { "OBJECTID": 284, "Stop_Code": 7036, "Stop_Name": "W. Fairview - Library", "Seating": null, "stop_lon_X": -82.35494076000001, "stop_lat_Y": 36.32008411, "last_edited_date": "2023-12-08T21:27:07Z" }, "geometry": { "type": "Point", "coordinates": [ -82.35494451379499, 36.320091163177686 ] } },
{ "type": "Feature", "properties": { "OBJECTID": 285, "Stop_Code": 7037, "Stop_Name": "N. Roan & E. Watauga", "Seating": "Bench", "stop_lon_X": -82.356191, "stop_lat_Y": 36.32134, "last_edited_date": "2023-12-08T21:27:07Z" }, "geometry": { "type": "Point", "coordinates": [ -82.356194755221892, 36.321347052931387 ] } },
{ "type": "Feature", "properties": { "OBJECTID": 286, "Stop_Code": 7038, "Stop_Name": "W. 8th - N. Roan- Mooney's", "Seating": null, "stop_lon_X": -82.360965, "stop_lat_Y": 36.323743, "last_edited_date": "2023-12-08T21:27:07Z" }, "geometry": { "type": "Point", "coordinates": [ -82.360968756017627, 36.323750053443199 ] } },
{ "type": "Feature", "properties": { "OBJECTID": 287, "Stop_Code": 7039, "Stop_Name": "W. 8th & N. Boone", "Seating": null, "stop_lon_X": -82.362011, "stop_lat_Y": 36.322762, "last_edited_date": "2023-12-08T21:27:07Z" }, "geometry": { "type": "Point", "coordinates": [ -82.362014756908351, 36.322769053657652 ] } },
{ "type": "Feature", "properties": { "OBJECTID": 288, "Stop_Code": 7040, "Stop_Name": "W. 8th & Montgomery", "Seating": null, "stop_lon_X": -82.362974, "stop_lat_Y": 36.321906, "last_edited_date": "2023-12-08T21:27:07Z" }, "geometry": { "type": "Point", "coordinates": [ -82.362977756703401, 36.32191305309594 ] } },
{ "type": "Feature", "properties": { "OBJECTID": 289, "Stop_Code": 7041, "Stop_Name": "W. 8th & Jackson", "Seating": null, "stop_lon_X": -82.364493, "stop_lat_Y": 36.320543, "last_edited_date": "2023-12-08T21:27:07Z" }, "geometry": { "type": "Point", "coordinates": [ -82.364496757118218, 36.320550053033941 ] } },
{ "type": "Feature", "properties": { "OBJECTID": 290, "Stop_Code": 7042, "Stop_Name": "W. 8th & Garden", "Seating": null, "stop_lon_X": -82.365191, "stop_lat_Y": 36.319892, "last_edited_date": "2023-12-08T21:27:07Z" }, "geometry": { "type": "Point", "coordinates": [ -82.365194757180774, 36.319899052535547 ] } },
{ "type": "Feature", "properties": { "OBJECTID": 291, "Stop_Code": 7043, "Stop_Name": "Garden & John Exum", "Seating": null, "stop_lon_X": -82.366943, "stop_lat_Y": 36.319699, "last_edited_date": "2023-12-08T21:27:07Z" }, "geometry": { "type": "Point", "coordinates": [ -82.366946757489771, 36.319706052330936 ] } },
{ "type": "Feature", "properties": { "OBJECTID": 292, "Stop_Code": 7044, "Stop_Name": "John Exum & Greenway", "Seating": null, "stop_lon_X": -82.369138, "stop_lat_Y": 36.322702, "last_edited_date": "2023-12-08T21:27:07Z" }, "geometry": { "type": "Point", "coordinates": [ -82.369141758428711, 36.322709052898418 ] } },
{ "type": "Feature", "properties": { "OBJECTID": 293, "Stop_Code": 7045, "Stop_Name": "John Exum - SHHS Pedestrian Walkway", "Seating": null, "stop_lon_X": -82.369282, "stop_lat_Y": 36.326709, "last_edited_date": "2023-12-08T21:27:07Z" }, "geometry": { "type": "Point", "coordinates": [ -82.369285759357979, 36.326716053892532 ] } },
{ "type": "Feature", "properties": { "OBJECTID": 295, "Stop_Code": 7047, "Stop_Name": "Sundale & Northgate", "Seating": null, "stop_lon_X": -82.38032787, "stop_lat_Y": 36.33416839, "last_edited_date": "2023-12-08T21:27:07Z" }, "geometry": { "type": "Point", "coordinates": [ -82.380331632901928, 36.334175445084718 ] } },
{ "type": "Feature", "properties": { "OBJECTID": 304, "Stop_Code": 8003, "Stop_Name": "E. Watauga & Welbourne", "Seating": null, "stop_lon_X": -82.3549354, "stop_lat_Y": 36.32276766, "last_edited_date": "2023-12-08T21:27:07Z" }, "geometry": { "type": "Point", "coordinates": [ -82.354939154809642, 36.322774713382032 ] } },
{ "type": "Feature", "properties": { "OBJECTID": 305, "Stop_Code": 8004, "Stop_Name": "E. Watauga & Elm - Blankenship Pharm", "Seating": "Bench", "stop_lon_X": -82.35334753, "stop_lat_Y": 36.32431664, "last_edited_date": "2023-12-08T21:27:07Z" }, "geometry": { "type": "Point", "coordinates": [ -82.353351284520869, 36.324323694123009 ] } },
{ "type": "Feature", "properties": { "OBJECTID": 306, "Stop_Code": 8005, "Stop_Name": "E. Watauga & Baxter", "Seating": null, "stop_lon_X": -82.35148742, "stop_lat_Y": 36.32608287, "last_edited_date": "2023-12-08T21:27:07Z" }, "geometry": { "type": "Point", "coordinates": [ -82.351491173981358, 36.326089924184757 ] } },
{ "type": "Feature", "properties": { "OBJECTID": 307, "Stop_Code": 8006, "Stop_Name": "E. Watauga & Stuart", "Seating": null, "stop_lon_X": -82.35048561000001, "stop_lat_Y": 36.32702433, "last_edited_date": "2023-12-08T21:27:07Z" }, "geometry": { "type": "Point", "coordinates": [ -82.350489363749517, 36.327031384387062 ] } },
{ "type": "Feature", "properties": { "OBJECTID": 309, "Stop_Code": 8008, "Stop_Name": "E. Watauga & New", "Seating": null, "stop_lon_X": -82.34945565, "stop_lat_Y": 36.32800065, "last_edited_date": "2023-12-08T21:27:07Z" }, "geometry": { "type": "Point", "coordinates": [ -82.349459402776674, 36.328007705261292 ] } },
{ "type": "Feature", "properties": { "OBJECTID": 310, "Stop_Code": 8009, "Stop_Name": "E. Watauga & Lester Harris - Funeral Home", "Seating": null, "stop_lon_X": -82.34737425, "stop_lat_Y": 36.32993185, "last_edited_date": "2023-12-08T21:27:07Z" }, "geometry": { "type": "Point", "coordinates": [ -82.347378002782534, 36.32993890505012 ] } },
{ "type": "Feature", "properties": { "OBJECTID": 311, "Stop_Code": 8010, "Stop_Name": "E. Watauga & E. Oakland", "Seating": null, "stop_lon_X": -82.34530895, "stop_lat_Y": 36.3318456, "last_edited_date": "2023-12-08T21:27:07Z" }, "geometry": { "type": "Point", "coordinates": [ -82.345312701923632, 36.331852656334362 ] } },
{ "type": "Feature", "properties": { "OBJECTID": 312, "Stop_Code": 8011, "Stop_Name": "E. Watauga - Regions Bank", "Seating": null, "stop_lon_X": -82.34336167, "stop_lat_Y": 36.33366012, "last_edited_date": "2023-12-08T21:27:07Z" }, "geometry": { "type": "Point", "coordinates": [ -82.343365421585119, 36.333667176228182 ] } },
{ "type": "Feature", "properties": { "OBJECTID": 313, "Stop_Code": 8012, "Stop_Name": "E. Fairview & N. Broadway - Alpine", "Seating": "Bench", "stop_lon_X": -82.34097718, "stop_lat_Y": 36.33268245, "last_edited_date": "2023-12-08T21:27:07Z" }, "geometry": { "type": "Point", "coordinates": [ -82.34098093118746, 36.332689506470011 ] } },
{ "type": "Feature", "properties": { "OBJECTID": 314, "Stop_Code": 8013, "Stop_Name": "E. Fairview & Earl", "Seating": "Bench", "stop_lon_X": -82.33915596, "stop_lat_Y": 36.33437224, "last_edited_date": "2023-12-08T21:27:07Z" }, "geometry": { "type": "Point", "coordinates": [ -82.339159710679894, 36.334379296278364 ] } },
{ "type": "Feature", "properties": { "OBJECTID": 315, "Stop_Code": 8014, "Stop_Name": "E. Fairview & Prince", "Seating": "Bench", "stop_lon_X": -82.33811661, "stop_lat_Y": 36.33532443, "last_edited_date": "2023-12-08T21:27:07Z" }, "geometry": { "type": "Point", "coordinates": [ -82.338120360617665, 36.335331487018379 ] } },
{ "type": "Feature", "properties": { "OBJECTID": 316, "Stop_Code": 8015, "Stop_Name": "E. Fairview & Mercury", "Seating": null, "stop_lon_X": -82.33602314, "stop_lat_Y": 36.33726232, "last_edited_date": "2023-12-08T21:27:07Z" }, "geometry": { "type": "Point", "coordinates": [ -82.336026890091148, 36.337269377244333 ] } },
{ "type": "Feature", "properties": { "OBJECTID": 317, "Stop_Code": 8016, "Stop_Name": "E. Fairview & Steel - Fairview Apts", "Seating": "Bench", "stop_lon_X": -82.33375668, "stop_lat_Y": 36.33935042, "last_edited_date": "2023-12-08T21:27:07Z" }, "geometry": { "type": "Point", "coordinates": [ -82.333760428982345, 36.339357478173078 ] } },
{ "type": "Feature", "properties": { "OBJECTID": 318, "Stop_Code": 8017, "Stop_Name": "E. Fairview - Williams Bros Trucking", "Seating": null, "stop_lon_X": -82.33254298, "stop_lat_Y": 36.3418261, "last_edited_date": "2023-12-08T21:27:07Z" }, "geometry": { "type": "Point", "coordinates": [ -82.332546729441191, 36.34183315891498 ] } },
{ "type": "Feature", "properties": { "OBJECTID": 319, "Stop_Code": 8018, "Stop_Name": "VBI-6:26-3:26-Oth-30 Min Adv Notice-Call 929-7119", "Seating": null, "stop_lon_X": -82.33354612, "stop_lat_Y": 36.34684049, "last_edited_date": "2023-12-08T21:27:07Z" }, "geometry": { "type": "Point", "coordinates": [ -82.333549869237501, 36.346847549157793 ] } },
{ "type": "Feature", "properties": { "OBJECTID": 321, "Stop_Code": 8020, "Stop_Name": "E. Fairview - Eddie Williams Indst Park", "Seating": "Shelter", "stop_lon_X": -82.33123808000001, "stop_lat_Y": 36.34522714, "last_edited_date": "2023-12-08T21:27:07Z" }, "geometry": { "type": "Point", "coordinates": [ -82.331241828878305, 36.345234199637964 ] } },
{ "type": "Feature", "properties": { "OBJECTID": 322, "Stop_Code": 8021, "Stop_Name": "E. Fairview - ACT", "Seating": "Bench", "stop_lon_X": -82.3318456, "stop_lat_Y": 36.34702422, "last_edited_date": "2023-12-08T21:27:07Z" }, "geometry": { "type": "Point", "coordinates": [ -82.331849349482965, 36.347031279716624 ] } },
{ "type": "Feature", "properties": { "OBJECTID": 323, "Stop_Code": 8022, "Stop_Name": "Watauga Rd - Coalition for Kids", "Seating": null, "stop_lon_X": -82.332588, "stop_lat_Y": 36.348521, "last_edited_date": "2023-12-08T21:27:07Z" }, "geometry": { "type": "Point", "coordinates": [ -82.332591749032673, 36.348528059839197 ] } },
{ "type": "Feature", "properties": { "OBJECTID": 324, "Stop_Code": 8023, "Stop_Name": "Watauga Rd - US Marble", "Seating": null, "stop_lon_X": -82.331515, "stop_lat_Y": 36.350019, "last_edited_date": "2023-12-08T21:27:07Z" }, "geometry": { "type": "Point", "coordinates": [ -82.331518749102301, 36.350026059790075 ] } },
{ "type": "Feature", "properties": { "OBJECTID": 325, "Stop_Code": 8024, "Stop_Name": "McArthur & Watauga Rd", "Seating": "Bench", "stop_lon_X": -82.330152, "stop_lat_Y": 36.352371, "last_edited_date": "2023-12-08T21:27:07Z" }, "geometry": { "type": "Point", "coordinates": [ -82.330155748732679, 36.352378060319019 ] } },
{ "type": "Feature", "properties": { "OBJECTID": 326, "Stop_Code": 8025, "Stop_Name": "McArthur & Louise", "Seating": null, "stop_lon_X": -82.330931, "stop_lat_Y": 36.352768, "last_edited_date": "2023-12-08T21:27:07Z" }, "geometry": { "type": "Point", "coordinates": [ -82.330934749176834, 36.352775061102285 ] } },
{ "type": "Feature", "properties": { "OBJECTID": 327, "Stop_Code": 8026, "Stop_Name": "Louise & Long", "Seating": null, "stop_lon_X": -82.332628, "stop_lat_Y": 36.350537, "last_edited_date": "2023-12-08T21:27:07Z" }, "geometry": { "type": "Point", "coordinates": [ -82.332631749489508, 36.350544060599553 ] } },
{ "type": "Feature", "properties": { "OBJECTID": 328, "Stop_Code": 8027, "Stop_Name": "Long & Watauga Rd", "Seating": null, "stop_lon_X": -82.33177, "stop_lat_Y": 36.349988, "last_edited_date": "2023-12-08T21:27:07Z" }, "geometry": { "type": "Point", "coordinates": [ -82.331773749414239, 36.349995060093299 ] } },
{ "type": "Feature", "properties": { "OBJECTID": 329, "Stop_Code": 8028, "Stop_Name": "Watauga Rd & Mose - BY-LO Mkt", "Seating": null, "stop_lon_X": -82.332695, "stop_lat_Y": 36.348648, "last_edited_date": "2023-12-08T21:27:07Z" }, "geometry": { "type": "Point", "coordinates": [ -82.332698749272865, 36.348655059584033 ] } },
{ "type": "Feature", "properties": { "OBJECTID": 330, "Stop_Code": 8029, "Stop_Name": "E. Unaka - God's Corner", "Seating": "Bench", "stop_lon_X": -82.33355953, "stop_lat_Y": 36.34691157, "last_edited_date": "2023-12-08T21:27:07Z" }, "geometry": { "type": "Point", "coordinates": [ -82.333563279974769, 36.346918629091128 ] } },
{ "type": "Feature", "properties": { "OBJECTID": 331, "Stop_Code": 8030, "Stop_Name": "E. Unaka - Tyler Apts", "Seating": "Shelter", "stop_lon_X": -82.33381434, "stop_lat_Y": 36.34453379, "last_edited_date": "2023-12-08T21:27:07Z" }, "geometry": { "type": "Point", "coordinates": [ -82.333818089170023, 36.344540848692482 ] } },
{ "type": "Feature", "properties": { "OBJECTID": 332, "Stop_Code": 8031, "Stop_Name": "E. Unaka - Campbells", "Seating": null, "stop_lon_X": -82.33479201, "stop_lat_Y": 36.34332814, "last_edited_date": "2023-12-08T21:27:07Z" }, "geometry": { "type": "Point", "coordinates": [ -82.334795759442514, 36.343335198270516 ] } },
{ "type": "Feature", "properties": { "OBJECTID": 333, "Stop_Code": 8032, "Stop_Name": "E. Unaka - Shell Station", "Seating": "Bench", "stop_lon_X": -82.33735218, "stop_lat_Y": 36.34084307, "last_edited_date": "2023-12-08T21:27:07Z" }, "geometry": { "type": "Point", "coordinates": [ -82.337355930657125, 36.340850127689663 ] } },
{ "type": "Feature", "properties": { "OBJECTID": 334, "Stop_Code": 8033, "Stop_Name": "1513 E. Unaka - Before Earl", "Seating": null, "stop_lon_X": -82.34104692, "stop_lat_Y": 36.33741789, "last_edited_date": "2023-12-08T21:27:07Z" }, "geometry": { "type": "Point", "coordinates": [ -82.34105067128263, 36.337424946951295 ] } },
{ "type": "Feature", "properties": { "OBJECTID": 335, "Stop_Code": 8034, "Stop_Name": "E. Unaka & Crown", "Seating": null, "stop_lon_X": -82.34297409, "stop_lat_Y": 36.33563154, "last_edited_date": "2023-12-08T21:27:07Z" }, "geometry": { "type": "Point", "coordinates": [ -82.342977841970438, 36.335638596813027 ] } },
{ "type": "Feature", "properties": { "OBJECTID": 336, "Stop_Code": 8035, "Stop_Name": "New & E. Unaka", "Seating": null, "stop_lon_X": -82.350209, "stop_lat_Y": 36.328591, "last_edited_date": "2023-12-08T21:27:07Z" }, "geometry": { "type": "Point", "coordinates": [ -82.350212753036971, 36.328598055169778 ] } },
{ "type": "Feature", "properties": { "OBJECTID": 337, "Stop_Code": 8036, "Stop_Name": "New & E. Myrtle", "Seating": "Shelter", "stop_lon_X": -82.348585, "stop_lat_Y": 36.327461, "last_edited_date": "2023-12-08T21:27:07Z" }, "geometry": { "type": "Point", "coordinates": [ -82.348588753242495, 36.327468054887987 ] } },
{ "type": "Feature", "properties": { "OBJECTID": 338, "Stop_Code": 8037, "Stop_Name": "New & E. Fairview", "Seating": "Bench", "stop_lon_X": -82.347549, "stop_lat_Y": 36.326716, "last_edited_date": "2023-12-08T21:27:07Z" }, "geometry": { "type": "Point", "coordinates": [ -82.347552752161775, 36.326723054387259 ] } },
{ "type": "Feature", "properties": { "OBJECTID": 339, "Stop_Code": 8038, "Stop_Name": "E. Fairview & Baxter", "Seating": "Bench", "stop_lon_X": -82.34945833, "stop_lat_Y": 36.32486649, "last_edited_date": "2023-12-08T21:27:07Z" }, "geometry": { "type": "Point", "coordinates": [ -82.349462083210909, 36.324873544569428 ] } },
{ "type": "Feature", "properties": { "OBJECTID": 340, "Stop_Code": 8039, "Stop_Name": "E. Fairview & Elm", "Seating": "Bench", "stop_lon_X": -82.35134258, "stop_lat_Y": 36.32306271, "last_edited_date": "2023-12-08T21:27:07Z" }, "geometry": { "type": "Point", "coordinates": [ -82.351346332992321, 36.323069763565158 ] } },
{ "type": "Feature", "properties": { "OBJECTID": 341, "Stop_Code": 8040, "Stop_Name": "E. Fairview - Prof. Office Bldg", "Seating": null, "stop_lon_X": -82.35352992, "stop_lat_Y": 36.32118784, "last_edited_date": "2023-12-08T21:27:07Z" }, "geometry": { "type": "Point", "coordinates": [ -82.353533673794445, 36.32119489320808 ] } },
{ "type": "Feature", "properties": { "OBJECTID": 342, "Stop_Code": 8041, "Stop_Name": "E. Fairview - St John's Church", "Seating": null, "stop_lon_X": -82.35449686, "stop_lat_Y": 36.32048913, "last_edited_date": "2023-12-08T21:27:07Z" }, "geometry": { "type": "Point", "coordinates": [ -82.354500614214615, 36.320496183396308 ] } },
{ "type": "Feature", "properties": { "OBJECTID": 343, "Stop_Code": 8042, "Stop_Name": "Wilson & W. Watauga - Wat. Sq. Apts", "Seating": null, "stop_lon_X": -82.35978081, "stop_lat_Y": 36.31548278, "last_edited_date": "2023-12-08T21:27:07Z" }, "geometry": { "type": "Point", "coordinates": [ -82.359784565664413, 36.315489831861186 ] } },
{ "type": "Feature", "properties": { "OBJECTID": 344, "Stop_Code": 8043, "Stop_Name": "W. Watauga & Lamont", "Seating": null, "stop_lon_X": -82.359904, "stop_lat_Y": 36.313542, "last_edited_date": "2023-12-08T21:27:07Z" }, "geometry": { "type": "Point", "coordinates": [ -82.359907754752527, 36.313549051616462 ] } },
{ "type": "Feature", "properties": { "OBJECTID": 345, "Stop_Code": 8044, "Stop_Name": "Lamont & Winter", "Seating": null, "stop_lon_X": -82.36182331000001, "stop_lat_Y": 36.31337457, "last_edited_date": "2023-12-08T21:27:07Z" }, "geometry": { "type": "Point", "coordinates": [ -82.36182706578694, 36.313381621855989 ] } },
{ "type": "Feature", "properties": { "OBJECTID": 346, "Stop_Code": 8045, "Stop_Name": "Lamont & Hillcrest", "Seating": null, "stop_lon_X": -82.36481, "stop_lat_Y": 36.313275, "last_edited_date": "2023-12-08T21:27:07Z" }, "geometry": { "type": "Point", "coordinates": [ -82.364813756368719, 36.313282051438691 ] } },
{ "type": "Feature", "properties": { "OBJECTID": 347, "Stop_Code": 8046, "Stop_Name": "Lamont & Harrison", "Seating": null, "stop_lon_X": -82.370488, "stop_lat_Y": 36.311659, "last_edited_date": "2023-12-08T21:27:07Z" }, "geometry": { "type": "Point", "coordinates": [ -82.37049175872724, 36.311666051120142 ] } },
{ "type": "Feature", "properties": { "OBJECTID": 348, "Stop_Code": 8047, "Stop_Name": "Bldg 162 - VA Nursing Home", "Seating": null, "stop_lon_X": -82.370015, "stop_lat_Y": 36.310611, "last_edited_date": "2023-12-08T21:27:07Z" }, "geometry": { "type": "Point", "coordinates": [ -82.370018758629115, 36.310618050433419 ] } },
{ "type": "Feature", "properties": { "OBJECTID": 349, "Stop_Code": 8048, "Stop_Name": "Bldg 200 - VA ER", "Seating": "Shelter", "stop_lon_X": -82.37086236, "stop_lat_Y": 36.30979918, "last_edited_date": "2023-12-08T21:27:07Z" }, "geometry": { "type": "Point", "coordinates": [ -82.370866118816139, 36.309806230480447 ] } },
{ "type": "Feature", "properties": { "OBJECTID": 350, "Stop_Code": 8049, "Stop_Name": "Bldg 160 - VA Dom", "Seating": "Shelter", "stop_lon_X": -82.37181186, "stop_lat_Y": 36.30871959, "last_edited_date": "2023-12-08T21:27:07Z" }, "geometry": { "type": "Point", "coordinates": [ -82.371815618765112, 36.308726640170867 ] } },
{ "type": "Feature", "properties": { "OBJECTID": 351, "Stop_Code": 8050, "Stop_Name": "Bldg 2 - College of Med", "Seating": null, "stop_lon_X": -82.37462147, "stop_lat_Y": 36.30802088, "last_edited_date": "2023-12-08T21:27:07Z" }, "geometry": { "type": "Point", "coordinates": [ -82.374625229699845, 36.30802792983355 ] } },
{ "type": "Feature", "properties": { "OBJECTID": 352, "Stop_Code": 8051, "Stop_Name": "Bldg 1, 4, 119 - Dogwood Past Fourth", "Seating": "Bench", "stop_lon_X": -82.37747803000001, "stop_lat_Y": 36.30731278, "last_edited_date": "2023-12-08T21:27:07Z" }, "geometry": { "type": "Point", "coordinates": [ -82.377481790691675, 36.307319829284374 ] } },
{ "type": "Feature", "properties": { "OBJECTID": 353, "Stop_Code": 8052, "Stop_Name": "Dogwood & Lake", "Seating": null, "stop_lon_X": -82.37908199, "stop_lat_Y": 36.30689703, "last_edited_date": "2023-12-08T21:27:07Z" }, "geometry": { "type": "Point", "coordinates": [ -82.37908575014859, 36.306904079452941 ] } },
{ "type": "Feature", "properties": { "OBJECTID": 354, "Stop_Code": 8053, "Stop_Name": "Bldg 6 - Fifth & Magnolia", "Seating": null, "stop_lon_X": -82.37953528, "stop_lat_Y": 36.30753406, "last_edited_date": "2023-12-08T21:27:07Z" }, "geometry": { "type": "Point", "coordinates": [ -82.379539041172109, 36.307541109888618 ] } },
{ "type": "Feature", "properties": { "OBJECTID": 355, "Stop_Code": 8054, "Stop_Name": "Bldg 7 - College of Pharmacy", "Seating": null, "stop_lon_X": -82.37973242, "stop_lat_Y": 36.3082207, "last_edited_date": "2023-12-08T21:27:07Z" }, "geometry": { "type": "Point", "coordinates": [ -82.379736180616575, 36.308227749572175 ] } },
{ "type": "Feature", "properties": { "OBJECTID": 356, "Stop_Code": 8055, "Stop_Name": "Ballad - Main Entrance", "Seating": null, "stop_lon_X": -82.38496541000001, "stop_lat_Y": 36.30837761, "last_edited_date": "2023-12-08T21:27:07Z" }, "geometry": { "type": "Point", "coordinates": [ -82.384969172240034, 36.308384659245405 ] } },
{ "type": "Feature", "properties": { "OBJECTID": 357, "Stop_Code": 8056, "Stop_Name": "Same Day Surgery/Children's Hosp", "Seating": null, "stop_lon_X": -82.38359212, "stop_lat_Y": 36.30894088, "last_edited_date": "2023-12-08T21:27:07Z" }, "geometry": { "type": "Point", "coordinates": [ -82.383595881633596, 36.308947929311593 ] } },
{ "type": "Feature", "properties": { "OBJECTID": 358, "Stop_Code": 8057, "Stop_Name": "Bldg 178 - Stanton-Gerber Hall", "Seating": null, "stop_lon_X": -82.38026216, "stop_lat_Y": 36.30962216, "last_edited_date": "2023-12-08T21:27:07Z" }, "geometry": { "type": "Point", "coordinates": [ -82.380265921314006, 36.30962920964383 ] } },
{ "type": "Feature", "properties": { "OBJECTID": 359, "Stop_Code": 8058, "Stop_Name": "Bldg 53 - Post Office", "Seating": null, "stop_lon_X": -82.37748339, "stop_lat_Y": 36.30972274, "last_edited_date": "2023-12-08T21:27:07Z" }, "geometry": { "type": "Point", "coordinates": [ -82.377487150598114, 36.309729790426253 ] } },
{ "type": "Feature", "properties": { "OBJECTID": 360, "Stop_Code": 8059, "Stop_Name": "Memorial - Bldg 35 - Theatre", "Seating": "Bench", "stop_lon_X": -82.374481, "stop_lat_Y": 36.310245, "last_edited_date": "2023-12-08T21:27:07Z" }, "geometry": { "type": "Point", "coordinates": [ -82.374484759403131, 36.310252049949582 ] } },
{ "type": "Feature", "properties": { "OBJECTID": 361, "Stop_Code": 8060, "Stop_Name": "Lamont & Veterans Way", "Seating": null, "stop_lon_X": -82.372981, "stop_lat_Y": 36.311034, "last_edited_date": "2023-12-08T21:27:07Z" }, "geometry": { "type": "Point", "coordinates": [ -82.372984758609064, 36.311041050428365 ] } },
{ "type": "Feature", "properties": { "OBJECTID": 362, "Stop_Code": 8061, "Stop_Name": "Lamont & Frances", "Seating": "Bench", "stop_lon_X": -82.368884, "stop_lat_Y": 36.311783, "last_edited_date": "2023-12-08T21:27:07Z" }, "geometry": { "type": "Point", "coordinates": [ -82.368887757774218, 36.31179005066798 ] } },
{ "type": "Feature", "properties": { "OBJECTID": 363, "Stop_Code": 8062, "Stop_Name": "Lamont & Hillcrest", "Seating": null, "stop_lon_X": -82.364899, "stop_lat_Y": 36.313108, "last_edited_date": "2023-12-08T21:27:07Z" }, "geometry": { "type": "Point", "coordinates": [ -82.364902757146666, 36.31311505085197 ] } },